{"A":[{"id":"H11N","latitude":40.603995,"longitude":-73.755405,"name":"Far Rockaway-Mott Av","parent_station":"H11"},{"id":"H10N","latitude":40.600066,"longitude":-73.761353,"name":"Beach 25 St","parent_station":"H10"},{"id":"H09N","latitude":40.595398,"longitude":-73.768175,"name":"Beach 36 St","parent_station":"H09"},{"id":"H08N","latitude":40.592943,"longitude":-73.776013,"name":"Beach 44 St","parent_station":"H08"},{"id":"H07N","latitude":40.592374,"longitude":-73.788522,"name":"Beach 60 St","parent_station":"H07"},{"id":"H06N","latitude":40.590927,"longitude":-73.796924,"name":"Beach 67 St","parent_station":"H06"},{"id":"H04N","latitude":40.608382,"longitude":-73.815925,"name":"Broad Channel","parent_station":"H04"},{"id":"H03N","latitude":40.660476,"longitude":-73.830301,"name":"Howard Beach-JFK Airport","parent_station":"H03"},{"id":"H02N","latitude":40.668234,"longitude":-73.834058,"name":"Aqueduct-N Conduit Av","parent_station":"H02"},{"id":"H01N","latitude":40.672097,"longitude":-73.835919,"name":"Aqueduct Racetrack","parent_station":"H01"},{"id":"A61N","latitude":40.680429,"longitude":-73.843853,"name":"Rockaway Blvd","parent_station":"A61"},{"id":"A60N","latitude":40.679843,"longitude":-73.85147,"name":"88 St","parent_station":"A60"},{"id":"A59N","latitude":40.679371,"longitude":-73.858992,"name":"80 St","parent_station":"A59"},{"id":"A57N","latitude":40.677044,"longitude":-73.86505,"name":"Grant Av","parent_station":"A57"},{"id":"A55N","latitude":40.675377,"longitude":-73.872106,"name":"Euclid Av","parent_station":"A55"},{"id":"A54N","latitude":40.67413,"longitude":-73.88075,"name":"Shepherd Av","parent_station":"A54"},{"id":"A53N","latitude":40.67271,"longitude":-73.890358,"name":"Van Siclen Av","parent_station":"A53"},{"id":"A52N","latitude":40.674542,"longitude":-73.896548,"name":"Liberty Av","parent_station":"A52"},{"id":"A51N","latitude":40.678334,"longitude":-73.905316,"name":"Broadway Junction","parent_station":"A51"},{"id":"A50N","latitude":40.67834,"longitude":-73.911946,"name":"Rockaway Av","parent_station":"A50"},{"id":"A49N","latitude":40.678822,"longitude":-73.920786,"name":"Ralph Av","parent_station":"A49"},{"id":"A48N","latitude":40.679364,"longitude":-73.930729,"name":"Utica Av","parent_station":"A48"},{"id":"A47N","latitude":40.679921,"longitude":-73.940858,"name":"Kingston-Throop Avs","parent_station":"A47"},{"id":"A46N","latitude":40.680438,"longitude":-73.950426,"name":"Nostrand Av","parent_station":"A46"},{"id":"A45N","latitude":40.68138,"longitude":-73.956848,"name":"Franklin Av","parent_station":"A45"},{"id":"A44N","latitude":40.683263,"longitude":-73.965838,"name":"Clinton-Washington Avs","parent_station":"A44"},{"id":"A43N","latitude":40.686113,"longitude":-73.973946,"name":"Lafayette Av","parent_station":"A43"},{"id":"A42N","latitude":40.688484,"longitude":-73.985001,"name":"Hoyt-Schermerhorn Sts","parent_station":"A42"},{"id":"A41N","latitude":40.692338,"longitude":-73.987342,"name":"Jay St-MetroTech","parent_station":"A41"},{"id":"A40N","latitude":40.699337,"longitude":-73.990531,"name":"High St","parent_station":"A40"},{"id":"A38N","latitude":40.710197,"longitude":-74.007691,"name":"Fulton St","parent_station":"A38"},{"id":"A36N","latitude":40.714111,"longitude":-74.008585,"name":"Chambers St","parent_station":"A36"},{"id":"A34N","latitude":40.720824,"longitude":-74.005229,"name":"Canal St","parent_station":"A34"},{"id":"A33N","latitude":40.726227,"longitude":-74.003739,"name":"Spring St","parent_station":"A33"},{"id":"A32N","latitude":40.732338,"longitude":-74.000495,"name":"W 4 St-Wash Sq","parent_station":"A32"},{"id":"A31N","latitude":40.740893,"longitude":-74.00169,"name":"14 St","parent_station":"A31"},{"id":"A30N","latitude":40.745906,"longitude":-73.998041,"name":"23 St","parent_station":"A30"},{"id":"A28N","latitude":40.752287,"longitude":-73.993391,"name":"34 St-Penn Station","parent_station":"A28"},{"id":"A27N","latitude":40.757308,"longitude":-73.989735,"name":"42 St-Port Authority Bus Terminal","parent_station":"A27"},{"id":"A25N","latitude":40.762456,"longitude":-73.985984,"name":"50 St","parent_station":"A25"},{"id":"A24N","latitude":40.768296,"longitude":-73.981736,"name":"59 St-Columbus Circle","parent_station":"A24"},{"id":"A22N","latitude":40.775594,"longitude":-73.97641,"name":"72 St","parent_station":"A22"},{"id":"A21N","latitude":40.781433,"longitude":-73.972143,"name":"81 St-Museum of Natural History","parent_station":"A21"},{"id":"A20N","latitude":40.785868,"longitude":-73.968916,"name":"86 St","parent_station":"A20"},{"id":"A19N","latitude":40.791642,"longitude":-73.964696,"name":"96 St","parent_station":"A19"},{"id":"A18N","latitude":40.796092,"longitude":-73.961454,"name":"103 St","parent_station":"A18"},{"id":"A17N","latitude":40.800603,"longitude":-73.958161,"name":"Cathedral Pkwy (110 St)","parent_station":"A17"},{"id":"A16N","latitude":40.805085,"longitude":-73.954882,"name":"116 St","parent_station":"A16"},{"id":"A15N","latitude":40.811109,"longitude":-73.952343,"name":"125 St","parent_station":"A15"},{"id":"A14N","latitude":40.817894,"longitude":-73.947649,"name":"135 St","parent_station":"A14"},{"id":"A12N","latitude":40.824783,"longitude":-73.944216,"name":"145 St","parent_station":"A12"},{"id":"A11N","latitude":40.830518,"longitude":-73.941514,"name":"155 St","parent_station":"A11"},{"id":"A10N","latitude":40.836013,"longitude":-73.939892,"name":"163 St-Amsterdam Av","parent_station":"A10"},{"id":"A09N","latitude":40.840719,"longitude":-73.939561,"name":"168 St","parent_station":"A09"},{"id":"A07N","latitude":40.847391,"longitude":-73.939704,"name":"175 St","parent_station":"A07"},{"id":"A06N","latitude":40.851695,"longitude":-73.937969,"name":"181 St","parent_station":"A06"},{"id":"A05N","latitude":40.859022,"longitude":-73.93418,"name":"190 St","parent_station":"A05"},{"id":"A03N","latitude":40.865491,"longitude":-73.927271,"name":"Dyckman St","parent_station":"A03"},{"id":"A02N","latitude":40.868072,"longitude":-73.919899,"name":"Inwood-207 St","parent_station":"A02"}],"C":[{"id":"A09S","latitude":40.840719,"longitude":-73.939561,"name":"168 St","parent_station":"A09"},{"id":"A10S","latitude":40.836013,"longitude":-73.939892,"name":"163 St-Amsterdam Av","parent_station":"A10"},{"id":"A11S","latitude":40.830518,"longitude":-73.941514,"name":"155 St","parent_station":"A11"},{"id":"A12S","latitude":40.824783,"longitude":-73.944216,"name":"145 St","parent_station":"A12"},{"id":"A14S","latitude":40.817894,"longitude":-73.947649,"name":"135 St","parent_station":"A14"},{"id":"A15S","latitude":40.811109,"longitude":-73.952343,"name":"125 St","parent_station":"A15"},{"id":"A16S","latitude":40.805085,"longitude":-73.954882,"name":"116 St","parent_station":"A16"},{"id":"A17S","latitude":40.800603,"longitude":-73.958161,"name":"Cathedral Pkwy (110 St)","parent_station":"A17"},{"id":"A18S","latitude":40.796092,"longitude":-73.961454,"name":"103 St","parent_station":"A18"},{"id":"A19S","latitude":40.791642,"longitude":-73.964696,"name":"96 St","parent_station":"A19"},{"id":"A20S","latitude":40.785868,"longitude":-73.968916,"name":"86 St","parent_station":"A20"},{"id":"A21S","latitude":40.781433,"longitude":-73.972143,"name":"81 St-Museum of Natural History","parent_station":"A21"},{"id":"A22S","latitude":40.775594,"longitude":-73.97641,"name":"72 St","parent_station":"A22"},{"id":"A24S","latitude":40.768296,"longitude":-73.981736,"name":"59 St-Columbus Circle","parent_station":"A24"},{"id":"A25S","latitude":40.762456,"longitude":-73.985984,"name":"50 St","parent_station":"A25"},{"id":"A27S","latitude":40.757308,"longitude":-73.989735,"name":"42 St-Port Authority Bus Terminal","parent_station":"A27"},{"id":"A28S","latitude":40.752287,"longitude":-73.993391,"name":"34 St-Penn Station","parent_station":"A28"},{"id":"A30S","latitude":40.745906,"longitude":-73.998041,"name":"23 St","parent_station":"A30"},{"id":"A31S","latitude":40.740893,"longitude":-74.00169,"name":"14 St","parent_station":"A31"},{"id":"A32S","latitude":40.732338,"longitude":-74.000495,"name":"W 4 St-Wash Sq","parent_station":"A32"},{"id":"A33S","latitude":40.726227,"longitude":-74.003739,"name":"Spring St","parent_station":"A33"},{"id":"A34S","latitude":40.720824,"longitude":-74.005229,"name":"Canal St","parent_station":"A34"},{"id":"A36S","latitude":40.714111,"longitude":-74.008585,"name":"Chambers St","parent_station":"A36"},{"id":"A38S","latitude":40.710197,"longitude":-74.007691,"name":"Fulton St","parent_station":"A38"},{"id":"A40S","latitude":40.699337,"longitude":-73.990531,"name":"High St","parent_station":"A40"},{"id":"A41S","latitude":40.692338,"longitude":-73.987342,"name":"Jay St-MetroTech","parent_station":"A41"},{"id":"A42S","latitude":40.688484,"longitude":-73.985001,"name":"Hoyt-Schermerhorn Sts","parent_station":"A42"},{"id":"A43S","latitude":40.686113,"longitude":-73.973946,"name":"Lafayette Av","parent_station":"A43"},{"id":"A44S","latitude":40.683263,"longitude":-73.965838,"name":"Clinton-Washington Avs","parent_station":"A44"},{"id":"A45S","latitude":40.68138,"longitude":-73.956848,"name":"Franklin Av","parent_station":"A45"},{"id":"A46S","latitude":40.680438,"longitude":-73.950426,"name":"Nostrand Av","parent_station":"A46"},{"id":"A47S","latitude":40.679921,"longitude":-73.940858,"name":"Kingston-Throop Avs","parent_station":"A47"},{"id":"A48S","latitude":40.679364,"longitude":-73.930729,"name":"Utica Av","parent_station":"A48"},{"id":"A49S","latitude":40.678822,"longitude":-73.920786,"name":"Ralph Av","parent_station":"A49"},{"id":"A50S","latitude":40.67834,"longitude":-73.911946,"name":"Rockaway Av","parent_station":"A50"},{"id":"A51S","latitude":40.678334,"longitude":-73.905316,"name":"Broadway Junction","parent_station":"A51"},{"id":"A52S","latitude":40.674542,"longitude":-73.896548,"name":"Liberty Av","parent_station":"A52"},{"id":"A53S","latitude":40.67271,"longitude":-73.890358,"name":"Van Siclen Av","parent_station":"A53"},{"id":"A54S","latitude":40.67413,"longitude":-73.88075,"name":"Shepherd Av","parent_station":"A54"},{"id":"A55S","latitude":40.675377,"longitude":-73.872106,"name":"Euclid Av","parent_station":"A55"}],"E":[{"id":"G05S","latitude":40.702147,"longitude":-73.801109,"name":"Jamaica Center-Parsons/Archer","parent_station":"G05"},{"id":"G06S","latitude":40.700486,"longitude":-73.807969,"name":"Sutphin Blvd-Archer Av-JFK Airport","parent_station":"G06"},{"id":"G07S","latitude":40.702566,"longitude":-73.816859,"name":"Jamaica-Van Wyck","parent_station":"G07"},{"id":"F05S","latitude":40.709179,"longitude":-73.820574,"name":"Briarwood","parent_station":"F05"},{"id":"F06S","latitude":40.714441,"longitude":-73.831008,"name":"Kew Gardens-Union Tpke","parent_station":"F06"},{"id":"F07S","latitude":40.718331,"longitude":-73.837324,"name":"75 Av","parent_station":"F07"},{"id":"G08S","latitude":40.721691,"longitude":-73.844521,"name":"Forest Hills-71 Av","parent_station":"G08"},{"id":"G09S","latitude":40.726523,"longitude":-73.852719,"name":"67 Av","parent_station":"G09"},{"id":"G10S","latitude":40.729846,"longitude":-73.861604,"name":"63 Dr-Rego Park","parent_station":"G10"},{"id":"G11S","latitude":40.733106,"longitude":-73.869229,"name":"Woodhaven Blvd","parent_station":"G11"},{"id":"G12S","latitude":40.737015,"longitude":-73.877223,"name":"Grand Av-Newtown","parent_station":"G12"},{"id":"G13S","latitude":40.742454,"longitude":-73.882017,"name":"Elmhurst Av","parent_station":"G13"},{"id":"G14S","latitude":40.746644,"longitude":-73.891338,"name":"Jackson Hts-Roosevelt Av","parent_station":"G14"},{"id":"G15S","latitude":40.749669,"longitude":-73.898453,"name":"65 St","parent_station":"G15"},{"id":"G16S","latitude":40.752885,"longitude":-73.906006,"name":"Northern Blvd","parent_station":"G16"},{"id":"G18S","latitude":40.756312,"longitude":-73.913333,"name":"46 St","parent_station":"G18"},{"id":"G19S","latitude":40.756879,"longitude":-73.92074,"name":"Steinway St","parent_station":"G19"},{"id":"G20S","latitude":40.752039,"longitude":-73.928781,"name":"36 St","parent_station":"G20"},{"id":"G21S","latitude":40.748973,"longitude":-73.937243,"name":"Queens Plaza","parent_station":"G21"},{"id":"F09S","latitude":40.747846,"longitude":-73.946,"name":"Court Sq-23 St","parent_station":"F09"},{"id":"F11S","latitude":40.757552,"longitude":-73.969055,"name":"Lexington Av/53 St","parent_station":"F11"},{"id":"F12S","latitude":40.760167,"longitude":-73.975224,"name":"5 Av/53 St","parent_station":"F12"},{"id":"D14S","latitude":40.762862,"longitude":-73.981637,"name":"7 Av","parent_station":"D14"},{"id":"A25S","latitude":40.762456,"longitude":-73.985984,"name":"50 St","parent_station":"A25"},{"id":"A27S","latitude":40.757308,"longitude":-73.989735,"name":"42 St-Port Authority Bus Terminal","parent_station":"A27"},{"id":"A28S","latitude":40.752287,"longitude":-73.993391,"name":"34 St-Penn Station","parent_station":"A28"},{"id":"A30S","latitude":40.745906,"longitude":-73.998041,"name":"23 St","parent_station":"A30"},{"id":"A31S","latitude":40.740893,"longitude":-74.00169,"name":"14 St","parent_station":"A31"},{"id":"A32S","latitude":40.732338,"longitude":-74.000495,"name":"W 4 St-Wash Sq","parent_station":"A32"},{"id":"A33S","latitude":40.726227,"longitude":-74.003739,"name":"Spring St","parent_station":"A33"},{"id":"A34S","latitude":40.720824,"longitude":-74.005229,"name":"Canal St","parent_station":"A34"},{"id":"E01S","latitude":40.712582,"longitude":-74.009781,"name":"World Trade Center","parent_station":"E01"}],"B":[{"id":"D03S","latitude":40.873244,"longitude":-73.887138,"name":"Bedford Park Blvd","parent_station":"D03"},{"id":"D04S","latitude":40.866978,"longitude":-73.893509,"name":"Kingsbridge Rd","parent_station":"D04"},{"id":"D05S","latitude":40.861296,"longitude":-73.897749,"name":"Fordham Rd","parent_station":"D05"},{"id":"D06S","latitude":40.856093,"longitude":-73.900741,"name":"182-183 Sts","parent_station":"D06"},{"id":"D07S","latitude":40.85041,"longitude":-73.905227,"name":"Tremont Av","parent_station":"D07"},{"id":"D08S","latitude":40.8459,"longitude":-73.910136,"name":"174-175 Sts","parent_station":"D08"},{"id":"D09S","latitude":40.839306,"longitude":-73.9134,"name":"170 St","parent_station":"D09"},{"id":"D10S","latitude":40.833771,"longitude":-73.91844,"name":"167 St","parent_station":"D10"},{"id":"D11S","latitude":40.827905,"longitude":-73.925651,"name":"161 St-Yankee Stadium","parent_station":"D11"},{"id":"D12S","latitude":40.830135,"longitude":-73.938209,"name":"155 St","parent_station":"D12"},{"id":"D13S","latitude":40.824783,"longitude":-73.944216,"name":"145 St","parent_station":"D13"},{"id":"A14S","latitude":40.817894,"longitude":-73.947649,"name":"135 St","parent_station":"A14"},{"id":"A15S","latitude":40.811109,"longitude":-73.952343,"name":"125 St","parent_station":"A15"},{"id":"A16S","latitude":40.805085,"longitude":-73.954882,"name":"116 St","parent_station":"A16"},{"id":"A17S","latitude":40.800603,"longitude":-73.958161,"name":"Cathedral Pkwy (110 St)","parent_station":"A17"},{"id":"A18S","latitude":40.796092,"longitude":-73.961454,"name":"103 St","parent_station":"A18"},{"id":"A19S","latitude":40.791642,"longitude":-73.964696,"name":"96 St","parent_station":"A19"},{"id":"A20S","latitude":40.785868,"longitude":-73.968916,"name":"86 St","parent_station":"A20"},{"id":"A21S","latitude":40.781433,"longitude":-73.972143,"name":"81 St-Museum of Natural History","parent_station":"A21"},{"id":"A22S","latitude":40.775594,"longitude":-73.97641,"name":"72 St","parent_station":"A22"},{"id":"A24S","latitude":40.768296,"longitude":-73.981736,"name":"59 St-Columbus Circle","parent_station":"A24"},{"id":"D14S","latitude":40.762862,"longitude":-73.981637,"name":"7 Av","parent_station":"D14"},{"id":"D15S","latitude":40.758663,"longitude":-73.981329,"name":"47-50 Sts-Rockefeller Ctr","parent_station":"D15"},{"id":"D16S","latitude":40.754222,"longitude":-73.984569,"name":"42 St-Bryant Pk","parent_station":"D16"},{"id":"D17S","latitude":40.749719,"longitude":-73.987823,"name":"34 St-Herald Sq","parent_station":"D17"},{"id":"D20S","latitude":40.732338,"longitude":-74.000495,"name":"W 4 St-Wash Sq","parent_station":"D20"},{"id":"D21S","latitude":40.725297,"longitude":-73.996204,"name":"Broadway-Lafayette St","parent_station":"D21"},{"id":"D22S","latitude":40.718267,"longitude":-73.993753,"name":"Grand St","parent_station":"D22"},{"id":"R30S","latitude":40.690635,"longitude":-73.981824,"name":"DeKalb Av","parent_station":"R30"},{"id":"D24S","latitude":40.68446,"longitude":-73.97689,"name":"Atlantic Av-Barclays Ctr","parent_station":"D24"},{"id":"D25S","latitude":40.67705,"longitude":-73.972367,"name":"7 Av","parent_station":"D25"},{"id":"D26S","latitude":40.661614,"longitude":-73.962246,"name":"Prospect Park","parent_station":"D26"},{"id":"D28S","latitude":40.650527,"longitude":-73.962982,"name":"Church Av","parent_station":"D28"},{"id":"D31S","latitude":40.635082,"longitude":-73.962793,"name":"Newkirk Plaza","parent_station":"D31"},{"id":"D35S","latitude":40.60867,"longitude":-73.957734,"name":"Kings Hwy","parent_station":"D35"},{"id":"D39S","latitude":40.586896,"longitude":-73.954155,"name":"Sheepshead Bay","parent_station":"D39"},{"id":"D40S","latitude":40.577621,"longitude":-73.961376,"name":"Brighton Beach","parent_station":"D40"}],"D":[{"id":"D01S","latitude":40.874811,"longitude":-73.878855,"name":"Norwood-205 St","parent_station":"D01"},{"id":"D03S","latitude":40.873244,"longitude":-73.887138,"name":"Bedford Park Blvd","parent_station":"D03"},{"id":"D04S","latitude":40.866978,"longitude":-73.893509,"name":"Kingsbridge Rd","parent_station":"D04"},{"id":"D05S","latitude":40.861296,"longitude":-73.897749,"name":"Fordham Rd","parent_station":"D05"},{"id":"D06S","latitude":40.856093,"longitude":-73.900741,"name":"182-183 Sts","parent_station":"D06"},{"id":"D07S","latitude":40.85041,"longitude":-73.905227,"name":"Tremont Av","parent_station":"D07"},{"id":"D08S","latitude":40.8459,"longitude":-73.910136,"name":"174-175 Sts","parent_station":"D08"},{"id":"D09S","latitude":40.839306,"longitude":-73.9134,"name":"170 St","parent_station":"D09"},{"id":"D10S","latitude":40.833771,"longitude":-73.91844,"name":"167 St","parent_station":"D10"},{"id":"D11S","latitude":40.827905,"longitude":-73.925651,"name":"161 St-Yankee Stadium","parent_station":"D11"},{"id":"D12S","latitude":40.830135,"longitude":-73.938209,"name":"155 St","parent_station":"D12"},{"id":"D13S","latitude":40.824783,"longitude":-73.944216,"name":"145 St","parent_station":"D13"},{"id":"A15S","latitude":40.811109,"longitude":-73.952343,"name":"125 St","parent_station":"A15"},{"id":"A24S","latitude":40.768296,"longitude":-73.981736,"name":"59 St-Columbus Circle","parent_station":"A24"},{"id":"D14S","latitude":40.762862,"longitude":-73.981637,"name":"7 Av","parent_station":"D14"},{"id":"D15S","latitude":40.758663,"longitude":-73.981329,"name":"47-50 Sts-Rockefeller Ctr","parent_station":"D15"},{"id":"D16S","latitude":40.754222,"longitude":-73.984569,"name":"42 St-Bryant Pk","parent_station":"D16"},{"id":"D17S","latitude":40.749719,"longitude":-73.987823,"name":"34 St-Herald Sq","parent_station":"D17"},{"id":"D20S","latitude":40.732338,"longitude":-74.000495,"name":"W 4 St-Wash Sq","parent_station":"D20"},{"id":"D21S","latitude":40.725297,"longitude":-73.996204,"name":"Broadway-Lafayette St","parent_station":"D21"},{"id":"D22S","latitude":40.718267,"longitude":-73.993753,"name":"Grand St","parent_station":"D22"},{"id":"R30S","latitude":40.690635,"longitude":-73.981824,"name":"DeKalb Av","parent_station":"R30"},{"id":"R31S","latitude":40.683666,"longitude":-73.97881,"name":"Atlantic Av-Barclays Ctr","parent_station":"R31"},{"id":"R32S","latitude":40.677316,"longitude":-73.98311,"name":"Union St","parent_station":"R32"},{"id":"R33S","latitude":40.670847,"longitude":-73.988302,"name":"4 Av-9 St","parent_station":"R33"},{"id":"R34S","latitude":40.665414,"longitude":-73.992872,"name":"Prospect Av","parent_station":"R34"},{"id":"R35S","latitude":40.660397,"longitude":-73.998091,"name":"25 St","parent_station":"R35"},{"id":"R36S","latitude":40.655144,"longitude":-74.003549,"name":"36 St","parent_station":"R36"},{"id":"B12S","latitude":40.646292,"longitude":-73.994324,"name":"9 Av","parent_station":"B12"},{"id":"B13S","latitude":40.640914,"longitude":-73.994304,"name":"Fort Hamilton Pkwy","parent_station":"B13"},{"id":"B14S","latitude":40.63626,"longitude":-73.994791,"name":"50 St","parent_station":"B14"},{"id":"B15S","latitude":40.631435,"longitude":-73.995476,"name":"55 St","parent_station":"B15"},{"id":"B16S","latitude":40.626472,"longitude":-73.996895,"name":"62 St","parent_station":"B16"},{"id":"B17S","latitude":40.619589,"longitude":-73.998864,"name":"71 St","parent_station":"B17"},{"id":"B18S","latitude":40.613501,"longitude":-74.00061,"name":"79 St","parent_station":"B18"},{"id":"B19S","latitude":40.607954,"longitude":-74.001736,"name":"18 Av","parent_station":"B19"},{"id":"B20S","latitude":40.604556,"longitude":-73.998168,"name":"20 Av","parent_station":"B20"},{"id":"B21S","latitude":40.601875,"longitude":-73.993728,"name":"Bay Pkwy","parent_station":"B21"},{"id":"B22S","latitude":40.597704,"longitude":-73.986829,"name":"25 Av","parent_station":"B22"},{"id":"B23S","latitude":40.588841,"longitude":-73.983765,"name":"Bay 50 St","parent_station":"B23"},{"id":"D43S","latitude":40.577422,"longitude":-73.981233,"name":"Coney Island-Stillwell Av","parent_station":"D43"}],"F":[{"id":"F01S","latitude":40.712646,"longitude":-73.783817,"name":"Jamaica-179 St","parent_station":"F01"},{"id":"F02S","latitude":40.71047,"longitude":-73.793604,"name":"169 St","parent_station":"F02"},{"id":"F03S","latitude":40.707564,"longitude":-73.803326,"name":"Parsons Blvd","parent_station":"F03"},{"id":"F04S","latitude":40.70546,"longitude":-73.810708,"name":"Sutphin Blvd","parent_station":"F04"},{"id":"F05S","latitude":40.709179,"longitude":-73.820574,"name":"Briarwood","parent_station":"F05"},{"id":"F06S","latitude":40.714441,"longitude":-73.831008,"name":"Kew Gardens-Union Tpke","parent_station":"F06"},{"id":"F07S","latitude":40.718331,"longitude":-73.837324,"name":"75 Av","parent_station":"F07"},{"id":"G08S","latitude":40.721691,"longitude":-73.844521,"name":"Forest Hills-71 Av","parent_station":"G08"},{"id":"G09S","latitude":40.726523,"longitude":-73.852719,"name":"67 Av","parent_station":"G09"},{"id":"G10S","latitude":40.729846,"longitude":-73.861604,"name":"63 Dr-Rego Park","parent_station":"G10"},{"id":"G11S","latitude":40.733106,"longitude":-73.869229,"name":"Woodhaven Blvd","parent_station":"G11"},{"id":"G12S","latitude":40.737015,"longitude":-73.877223,"name":"Grand Av-Newtown","parent_station":"G12"},{"id":"G13S","latitude":40.742454,"longitude":-73.882017,"name":"Elmhurst Av","parent_station":"G13"},{"id":"G14S","latitude":40.746644,"longitude":-73.891338,"name":"Jackson Hts-Roosevelt Av","parent_station":"G14"},{"id":"G15S","latitude":40.749669,"longitude":-73.898453,"name":"65 St","parent_station":"G15"},{"id":"G16S","latitude":40.752885,"longitude":-73.906006,"name":"Northern Blvd","parent_station":"G16"},{"id":"G18S","latitude":40.756312,"longitude":-73.913333,"name":"46 St","parent_station":"G18"},{"id":"G19S","latitude":40.756879,"longitude":-73.92074,"name":"Steinway St","parent_station":"G19"},{"id":"G20S","latitude":40.752039,"longitude":-73.928781,"name":"36 St","parent_station":"G20"},{"id":"B04S","latitude":40.754203,"longitude":-73.942836,"name":"21 St-Queensbridge","parent_station":"B04"},{"id":"B06S","latitude":40.759145,"longitude":-73.95326,"name":"Roosevelt Island","parent_station":"B06"},{"id":"B08S","latitude":40.764629,"longitude":-73.966113,"name":"Lexington Av/63 St","parent_station":"B08"},{"id":"B10S","latitude":40.763972,"longitude":-73.97745,"name":"57 St","parent_station":"B10"},{"id":"D15S","latitude":40.758663,"longitude":-73.981329,"name":"47-50 Sts-Rockefeller Ctr","parent_station":"D15"},{"id":"D16S","latitude":40.754222,"longitude":-73.984569,"name":"42 St-Bryant Pk","parent_station":"D16"},{"id":"D17S","latitude":40.749719,"longitude":-73.987823,"name":"34 St-Herald Sq","parent_station":"D17"},{"id":"D18S","latitude":40.742878,"longitude":-73.992821,"name":"23 St","parent_station":"D18"},{"id":"D19S","latitude":40.738228,"longitude":-73.996209,"name":"14 St","parent_station":"D19"},{"id":"D20S","latitude":40.732338,"longitude":-74.000495,"name":"W 4 St-Wash Sq","parent_station":"D20"},{"id":"D21S","latitude":40.725297,"longitude":-73.996204,"name":"Broadway-Lafayette St","parent_station":"D21"},{"id":"F14S","latitude":40.723402,"longitude":-73.989938,"name":"2 Av","parent_station":"F14"},{"id":"F15S","latitude":40.718611,"longitude":-73.988114,"name":"Delancey St-Essex St","parent_station":"F15"},{"id":"F16S","latitude":40.713715,"longitude":-73.990173,"name":"East Broadway","parent_station":"F16"},{"id":"F18S","latitude":40.701397,"longitude":-73.986751,"name":"York St","parent_station":"F18"},{"id":"A41S","latitude":40.692338,"longitude":-73.987342,"name":"Jay St-MetroTech","parent_station":"A41"},{"id":"F20S","latitude":40.686145,"longitude":-73.990862,"name":"Bergen St","parent_station":"F20"},{"id":"F21S","latitude":40.680303,"longitude":-73.995048,"name":"Carroll St","parent_station":"F21"},{"id":"F22S","latitude":40.67358,"longitude":-73.995959,"name":"Smith-9 Sts","parent_station":"F22"},{"id":"F23S","latitude":40.670272,"longitude":-73.989779,"name":"4 Av-9 St","parent_station":"F23"},{"id":"F24S","latitude":40.666271,"longitude":-73.980305,"name":"7 Av","parent_station":"F24"},{"id":"F25S","latitude":40.660365,"longitude":-73.979493,"name":"15 St-Prospect Park","parent_station":"F25"},{"id":"F26S","latitude":40.650782,"longitude":-73.975776,"name":"Fort Hamilton Pkwy","parent_station":"F26"},{"id":"F27S","latitude":40.644041,"longitude":-73.979678,"name":"Church Av","parent_station":"F27"},{"id":"F29S","latitude":40.636119,"longitude":-73.978172,"name":"Ditmas Av","parent_station":"F29"},{"id":"F30S","latitude":40.629755,"longitude":-73.976971,"name":"18 Av","parent_station":"F30"},{"id":"F31S","latitude":40.625322,"longitude":-73.976127,"name":"Avenue I","parent_station":"F31"},{"id":"F32S","latitude":40.620769,"longitude":-73.975264,"name":"Bay Pkwy","parent_station":"F32"},{"id":"F33S","latitude":40.61514,"longitude":-73.974197,"name":"Avenue N","parent_station":"F33"},{"id":"F34S","latitude":40.608944,"longitude":-73.973022,"name":"Avenue P","parent_station":"F34"},{"id":"F35S","latitude":40.603217,"longitude":-73.972361,"name":"Kings Hwy","parent_station":"F35"},{"id":"F36S","latitude":40.596063,"longitude":-73.973357,"name":"Avenue U","parent_station":"F36"},{"id":"F38S","latitude":40.58962,"longitude":-73.97425,"name":"Avenue X","parent_station":"F38"},{"id":"F39S","latitude":40.581011,"longitude":-73.974574,"name":"Neptune Av","parent_station":"F39"},{"id":"D42S","latitude":40.576127,"longitude":-73.975939,"name":"W 8 St-NY Aquarium","parent_station":"D42"},{"id":"D43S","latitude":40.577422,"longitude":-73.981233,"name":"Coney Island-Stillwell Av","parent_station":"D43"}],"M":[{"id":"M01N","latitude":40.711396,"longitude":-73.889601,"name":"Middle Village-Metropolitan Av","parent_station":"M01"},{"id":"M04N","latitude":40.706186,"longitude":-73.895877,"name":"Fresh Pond Rd","parent_station":"M04"},{"id":"M05N","latitude":40.704423,"longitude":-73.903077,"name":"Forest Av","parent_station":"M05"},{"id":"M06N","latitude":40.702762,"longitude":-73.90774,"name":"Seneca Av","parent_station":"M06"},{"id":"M08N","latitude":40.69943,"longitude":-73.912385,"name":"Myrtle-Wyckoff Avs","parent_station":"M08"},{"id":"M09N","latitude":40.698664,"longitude":-73.919711,"name":"Knickerbocker Av","parent_station":"M09"},{"id":"M10N","latitude":40.697857,"longitude":-73.927397,"name":"Central Av","parent_station":"M10"},{"id":"M11N","latitude":40.697207,"longitude":-73.935657,"name":"Myrtle Av","parent_station":"M11"},{"id":"M12N","latitude":40.70026,"longitude":-73.941126,"name":"Flushing Av","parent_station":"M12"},{"id":"M13N","latitude":40.703869,"longitude":-73.947408,"name":"Lorimer St","parent_station":"M13"},{"id":"M14N","latitude":40.70687,"longitude":-73.953431,"name":"Hewes St","parent_station":"M14"},{"id":"M16N","latitude":40.708359,"longitude":-73.957757,"name":"Marcy Av","parent_station":"M16"},{"id":"M18N","latitude":40.718315,"longitude":-73.987437,"name":"Delancey St-Essex St","parent_station":"M18"},{"id":"D21N","latitude":40.725297,"longitude":-73.996204,"name":"Broadway-Lafayette St","parent_station":"D21"},{"id":"D20N","latitude":40.732338,"longitude":-74.000495,"name":"W 4 St-Wash Sq","parent_station":"D20"},{"id":"D19N","latitude":40.738228,"longitude":-73.996209,"name":"14 St","parent_station":"D19"},{"id":"D18N","latitude":40.742878,"longitude":-73.992821,"name":"23 St","parent_station":"D18"},{"id":"D17N","latitude":40.749719,"longitude":-73.987823,"name":"34 St-Herald Sq","parent_station":"D17"},{"id":"D16N","latitude":40.754222,"longitude":-73.984569,"name":"42 St-Bryant Pk","parent_station":"D16"},{"id":"D15N","latitude":40.758663,"longitude":-73.981329,"name":"47-50 Sts-Rockefeller Ctr","parent_station":"D15"},{"id":"F12N","latitude":40.760167,"longitude":-73.975224,"name":"5 Av/53 St","parent_station":"F12"},{"id":"F11N","latitude":40.757552,"longitude":-73.969055,"name":"Lexington Av/53 St","parent_station":"F11"},{"id":"F09N","latitude":40.747846,"longitude":-73.946,"name":"Court Sq-23 St","parent_station":"F09"},{"id":"G21N","latitude":40.748973,"longitude":-73.937243,"name":"Queens Plaza","parent_station":"G21"},{"id":"G20N","latitude":40.752039,"longitude":-73.928781,"name":"36 St","parent_station":"G20"},{"id":"G19N","latitude":40.756879,"longitude":-73.92074,"name":"Steinway St","parent_station":"G19"},{"id":"G18N","latitude":40.756312,"longitude":-73.913333,"name":"46 St","parent_station":"G18"},{"id":"G16N","latitude":40.752885,"longitude":-73.906006,"name":"Northern Blvd","parent_station":"G16"},{"id":"G15N","latitude":40.749669,"longitude":-73.898453,"name":"65 St","parent_station":"G15"},{"id":"G14N","latitude":40.746644,"longitude":-73.891338,"name":"Jackson Hts-Roosevelt Av","parent_station":"G14"},{"id":"G13N","latitude":40.742454,"longitude":-73.882017,"name":"Elmhurst Av","parent_station":"G13"},{"id":"G12N","latitude":40.737015,"longitude":-73.877223,"name":"Grand Av-Newtown","parent_station":"G12"},{"id":"G11N","latitude":40.733106,"longitude":-73.869229,"name":"Woodhaven Blvd","parent_station":"G11"},{"id":"G10N","latitude":40.729846,"longitude":-73.861604,"name":"63 Dr-Rego Park","parent_station":"G10"},{"id":"G09N","latitude":40.726523,"longitude":-73.852719,"name":"67 Av","parent_station":"G09"},{"id":"G08N","latitude":40.721691,"longitude":-73.844521,"name":"Forest Hills-71 Av","parent_station":"G08"}],"G":[{"id":"G22S","latitude":40.746554,"longitude":-73.943832,"name":"Court Sq","parent_station":"G22"},{"id":"G24S","latitude":40.744065,"longitude":-73.949724,"name":"21 St","parent_station":"G24"},{"id":"G26S","latitude":40.731352,"longitude":-73.954449,"name":"Greenpoint Av","parent_station":"G26"},{"id":"G28S","latitude":40.724635,"longitude":-73.951277,"name":"Nassau Av","parent_station":"G28"},{"id":"G29S","latitude":40.712792,"longitude":-73.951418,"name":"Metropolitan Av","parent_station":"G29"},{"id":"G30S","latitude":40.706092,"longitude":-73.950308,"name":"Broadway","parent_station":"G30"},{"id":"G31S","latitude":40.700377,"longitude":-73.950234,"name":"Flushing Av","parent_station":"G31"},{"id":"G32S","latitude":40.694568,"longitude":-73.949046,"name":"Myrtle-Willoughby Avs","parent_station":"G32"},{"id":"G33S","latitude":40.689627,"longitude":-73.953522,"name":"Bedford-Nostrand Avs","parent_station":"G33"},{"id":"G34S","latitude":40.688873,"longitude":-73.96007,"name":"Classon Av","parent_station":"G34"},{"id":"G35S","latitude":40.688089,"longitude":-73.966839,"name":"Clinton-Washington Avs","parent_station":"G35"},{"id":"G36S","latitude":40.687119,"longitude":-73.975375,"name":"Fulton St","parent_station":"G36"},{"id":"A42S","latitude":40.688484,"longitude":-73.985001,"name":"Hoyt-Schermerhorn Sts","parent_station":"A42"},{"id":"F20S","latitude":40.686145,"longitude":-73.990862,"name":"Bergen St","parent_station":"F20"},{"id":"F21S","latitude":40.680303,"longitude":-73.995048,"name":"Carroll St","parent_station":"F21"},{"id":"F22S","latitude":40.67358,"longitude":-73.995959,"name":"Smith-9 Sts","parent_station":"F22"},{"id":"F23S","latitude":40.670272,"longitude":-73.989779,"name":"4 Av-9 St","parent_station":"F23"},{"id":"F24S","latitude":40.666271,"longitude":-73.980305,"name":"7 Av","parent_station":"F24"},{"id":"F25S","latitude":40.660365,"longitude":-73.979493,"name":"15 St-Prospect Park","parent_station":"F25"},{"id":"F26S","latitude":40.650782,"longitude":-73.975776,"name":"Fort Hamilton Pkwy","parent_station":"F26"},{"id":"F27S","latitude":40.644041,"longitude":-73.979678,"name":"Church Av","parent_station":"F27"}],"J":[{"id":"G05S","latitude":40.702147,"longitude":-73.801109,"name":"Jamaica Center-Parsons/Archer","parent_station":"G05"},{"id":"G06S","latitude":40.700486,"longitude":-73.807969,"name":"Sutphin Blvd-Archer Av-JFK Airport","parent_station":"G06"},{"id":"J12S","latitude":40.700492,"longitude":-73.828294,"name":"121 St","parent_station":"J12"},{"id":"J13S","latitude":40.697418,"longitude":-73.836345,"name":"111 St","parent_station":"J13"},{"id":"J14S","latitude":40.695178,"longitude":-73.84433,"name":"104 St","parent_station":"J14"},{"id":"J15S","latitude":40.693879,"longitude":-73.851576,"name":"Woodhaven Blvd","parent_station":"J15"},{"id":"J16S","latitude":40.692435,"longitude":-73.86001,"name":"85 St-Forest Pkwy","parent_station":"J16"},{"id":"J17S","latitude":40.691324,"longitude":-73.867139,"name":"75 St-Elderts Ln","parent_station":"J17"},{"id":"J19S","latitude":40.689941,"longitude":-73.87255,"name":"Cypress Hills","parent_station":"J19"},{"id":"J20S","latitude":40.683194,"longitude":-73.873785,"name":"Crescent St","parent_station":"J20"},{"id":"J21S","latitude":40.68141,"longitude":-73.880039,"name":"Norwood Av","parent_station":"J21"},{"id":"J22S","latitude":40.679947,"longitude":-73.884639,"name":"Cleveland St","parent_station":"J22"},{"id":"J23S","latitude":40.678024,"longitude":-73.891688,"name":"Van Siclen Av","parent_station":"J23"},{"id":"J24S","latitude":40.676992,"longitude":-73.898654,"name":"Alabama Av","parent_station":"J24"},{"id":"J27S","latitude":40.679498,"longitude":-73.904512,"name":"Broadway Junction","parent_station":"J27"},{"id":"J28S","latitude":40.682893,"longitude":-73.910456,"name":"Chauncey St","parent_station":"J28"},{"id":"J29S","latitude":40.68637,"longitude":-73.916559,"name":"Halsey St","parent_station":"J29"},{"id":"J30S","latitude":40.68963,"longitude":-73.92227,"name":"Gates Av","parent_station":"J30"},{"id":"J31S","latitude":40.693342,"longitude":-73.928814,"name":"Kosciuszko St","parent_station":"J31"},{"id":"M11S","latitude":40.697207,"longitude":-73.935657,"name":"Myrtle Av","parent_station":"M11"},{"id":"M12S","latitude":40.70026,"longitude":-73.941126,"name":"Flushing Av","parent_station":"M12"},{"id":"M13S","latitude":40.703869,"longitude":-73.947408,"name":"Lorimer St","parent_station":"M13"},{"id":"M14S","latitude":40.70687,"longitude":-73.953431,"name":"Hewes St","parent_station":"M14"},{"id":"M16S","latitude":40.708359,"longitude":-73.957757,"name":"Marcy Av","parent_station":"M16"},{"id":"M18S","latitude":40.718315,"longitude":-73.987437,"name":"Delancey St-Essex St","parent_station":"M18"},{"id":"M19S","latitude":40.72028,"longitude":-73.993915,"name":"Bowery","parent_station":"M19"},{"id":"M20S","latitude":40.718092,"longitude":-73.999892,"name":"Canal St","parent_station":"M20"},{"id":"M21S","latitude":40.713243,"longitude":-74.003401,"name":"Chambers St","parent_station":"M21"},{"id":"M22S","latitude":40.710374,"longitude":-74.007582,"name":"Fulton St","parent_station":"M22"},{"id":"M23S","latitude":40.706476,"longitude":-74.011056,"name":"Broad St","parent_station":"M23"}],"Z":[{"id":"G05S","latitude":40.702147,"longitude":-73.801109,"name":"Jamaica Center-Parsons/Archer","parent_station":"G05"},{"id":"G06S","latitude":40.700486,"longitude":-73.807969,"name":"Sutphin Blvd-Archer Av-JFK Airport","parent_station":"G06"},{"id":"J12S","latitude":40.700492,"longitude":-73.828294,"name":"121 St","parent_station":"J12"},{"id":"J14S","latitude":40.695178,"longitude":-73.84433,"name":"104 St","parent_station":"J14"},{"id":"J15S","latitude":40.693879,"longitude":-73.851576,"name":"Woodhaven Blvd","parent_station":"J15"},{"id":"J17S","latitude":40.691324,"longitude":-73.867139,"name":"75 St-Elderts Ln","parent_station":"J17"},{"id":"J20S","latitude":40.683194,"longitude":-73.873785,"name":"Crescent St","parent_station":"J20"},{"id":"J21S","latitude":40.68141,"longitude":-73.880039,"name":"Norwood Av","parent_station":"J21"},{"id":"J23S","latitude":40.678024,"longitude":-73.891688,"name":"Van Siclen Av","parent_station":"J23"},{"id":"J24S","latitude":40.676992,"longitude":-73.898654,"name":"Alabama Av","parent_station":"J24"},{"id":"J27S","latitude":40.679498,"longitude":-73.904512,"name":"Broadway Junction","parent_station":"J27"},{"id":"J28S","latitude":40.682893,"longitude":-73.910456,"name":"Chauncey St","parent_station":"J28"},{"id":"J30S","latitude":40.68963,"longitude":-73.92227,"name":"Gates Av","parent_station":"J30"},{"id":"M11S","latitude":40.697207,"longitude":-73.935657,"name":"Myrtle Av","parent_station":"M11"},{"id":"M16S","latitude":40.708359,"longitude":-73.957757,"name":"Marcy Av","parent_station":"M16"},{"id":"M18S","latitude":40.718315,"longitude":-73.987437,"name":"Delancey St-Essex St","parent_station":"M18"},{"id":"M19S","latitude":40.72028,"longitude":-73.993915,"name":"Bowery","parent_station":"M19"},{"id":"M20S","latitude":40.718092,"longitude":-73.999892,"name":"Canal St","parent_station":"M20"},{"id":"M21S","latitude":40.713243,"longitude":-74.003401,"name":"Chambers St","parent_station":"M21"},{"id":"M22S","latitude":40.710374,"longitude":-74.007582,"name":"Fulton St","parent_station":"M22"},{"id":"M23S","latitude":40.706476,"longitude":-74.011056,"name":"Broad St","parent_station":"M23"}],"L":[{"id":"L29N","latitude":40.646654,"longitude":-73.90185,"name":"Canarsie-Rockaway Pkwy","parent_station":"L29"},{"id":"L28N","latitude":40.650573,"longitude":-73.899485,"name":"East 105 St","parent_station":"L28"},{"id":"L27N","latitude":40.658733,"longitude":-73.899232,"name":"New Lots Av","parent_station":"L27"},{"id":"L26N","latitude":40.664038,"longitude":-73.900571,"name":"Livonia Av","parent_station":"L26"},{"id":"L25N","latitude":40.669367,"longitude":-73.901975,"name":"Sutter Av","parent_station":"L25"},{"id":"L24N","latitude":40.675345,"longitude":-73.903097,"name":"Atlantic Av","parent_station":"L24"},{"id":"L22N","latitude":40.678856,"longitude":-73.90324,"name":"Broadway Junction","parent_station":"L22"},{"id":"L21N","latitude":40.682829,"longitude":-73.905249,"name":"Bushwick Av-Aberdeen St","parent_station":"L21"},{"id":"L20N","latitude":40.688764,"longitude":-73.904046,"name":"Wilson Av","parent_station":"L20"},{"id":"L19N","latitude":40.695602,"longitude":-73.904084,"name":"Halsey St","parent_station":"L19"},{"id":"L17N","latitude":40.699814,"longitude":-73.911586,"name":"Myrtle-Wyckoff Avs","parent_station":"L17"},{"id":"L16N","latitude":40.703811,"longitude":-73.918425,"name":"DeKalb Av","parent_station":"L16"},{"id":"L15N","latitude":40.706607,"longitude":-73.922913,"name":"Jefferson St","parent_station":"L15"},{"id":"L14N","latitude":40.706152,"longitude":-73.933147,"name":"Morgan Av","parent_station":"L14"},{"id":"L13N","latitude":40.707739,"longitude":-73.93985,"name":"Montrose Av","parent_station":"L13"},{"id":"L12N","latitude":40.711926,"longitude":-73.94067,"name":"Grand St","parent_station":"L12"},{"id":"L11N","latitude":40.714565,"longitude":-73.944053,"name":"Graham Av","parent_station":"L11"},{"id":"L10N","latitude":40.714063,"longitude":-73.950275,"name":"Lorimer St","parent_station":"L10"},{"id":"L08N","latitude":40.717304,"longitude":-73.956872,"name":"Bedford Av","parent_station":"L08"},{"id":"L06N","latitude":40.730953,"longitude":-73.981628,"name":"1 Av","parent_station":"L06"},{"id":"L05N","latitude":40.732849,"longitude":-73.986122,"name":"3 Av","parent_station":"L05"},{"id":"L03N","latitude":40.734789,"longitude":-73.99073,"name":"14 St-Union Sq","parent_station":"L03"},{"id":"L02N","latitude":40.737335,"longitude":-73.996786,"name":"6 Av","parent_station":"L02"},{"id":"L01N","latitude":40.739777,"longitude":-74.002578,"name":"8 Av","parent_station":"L01"}],"N":[{"id":"R01S","latitude":40.775036,"longitude":-73.912034,"name":"Astoria-Ditmars Blvd","parent_station":"R01"},{"id":"R03S","latitude":40.770258,"longitude":-73.917843,"name":"Astoria Blvd","parent_station":"R03"},{"id":"R04S","latitude":40.766779,"longitude":-73.921479,"name":"30 Av","parent_station":"R04"},{"id":"R05S","latitude":40.76182,"longitude":-73.925508,"name":"Broadway","parent_station":"R05"},{"id":"R06S","latitude":40.756804,"longitude":-73.929575,"name":"36 Av","parent_station":"R06"},{"id":"R08S","latitude":40.752882,"longitude":-73.932755,"name":"39 Av-Dutch Kills","parent_station":"R08"},{"id":"R09S","latitude":40.750582,"longitude":-73.940202,"name":"Queensboro Plaza","parent_station":"R09"},{"id":"R11S","latitude":40.76266,"longitude":-73.967258,"name":"Lexington Av/59 St","parent_station":"R11"},{"id":"R13S","latitude":40.764811,"longitude":-73.973347,"name":"5 Av/59 St","parent_station":"R13"},{"id":"R14S","latitude":40.764664,"longitude":-73.980658,"name":"57 St-7 Av","parent_station":"R14"},{"id":"R15S","latitude":40.759901,"longitude":-73.984139,"name":"49 St","parent_station":"R15"},{"id":"R16S","latitude":40.754672,"longitude":-73.986754,"name":"Times Sq-42 St","parent_station":"R16"},{"id":"R17S","latitude":40.749567,"longitude":-73.98795,"name":"34 St-Herald Sq","parent_station":"R17"},{"id":"R18S","latitude":40.745494,"longitude":-73.988691,"name":"28 St","parent_station":"R18"},{"id":"R19S","latitude":40.741303,"longitude":-73.989344,"name":"23 St","parent_station":"R19"},{"id":"R20S","latitude":40.735736,"longitude":-73.990568,"name":"14 St-Union Sq","parent_station":"R20"},{"id":"R21S","latitude":40.730328,"longitude":-73.992629,"name":"8 St-NYU","parent_station":"R21"},{"id":"R22S","latitude":40.724329,"longitude":-73.997702,"name":"Prince St","parent_station":"R22"},{"id":"R23S","latitude":40.719527,"longitude":-74.001775,"name":"Canal St","parent_station":"R23"},{"id":"R24S","latitude":40.713282,"longitude":-74.006978,"name":"City Hall","parent_station":"R24"},{"id":"R25S","latitude":40.710668,"longitude":-74.011029,"name":"Cortlandt St","parent_station":"R25"},{"id":"R26S","latitude":40.70722,"longitude":-74.013342,"name":"Rector St","parent_station":"R26"},{"id":"R27S","latitude":40.703087,"longitude":-74.012994,"name":"Whitehall St-South Ferry","parent_station":"R27"},{"id":"R28S","latitude":40.6941,"longitude":-73.991777,"name":"Court St","parent_station":"R28"},{"id":"R29S","latitude":40.69218,"longitude":-73.985942,"name":"Jay St-MetroTech","parent_station":"R29"},{"id":"R30S","latitude":40.690635,"longitude":-73.981824,"name":"DeKalb Av","parent_station":"R30"},{"id":"R31S","latitude":40.683666,"longitude":-73.97881,"name":"Atlantic Av-Barclays Ctr","parent_station":"R31"},{"id":"R32S","latitude":40.677316,"longitude":-73.98311,"name":"Union St","parent_station":"R32"},{"id":"R33S","latitude":40.670847,"longitude":-73.988302,"name":"4 Av-9 St","parent_station":"R33"},{"id":"R34S","latitude":40.665414,"longitude":-73.992872,"name":"Prospect Av","parent_station":"R34"},{"id":"R35S","latitude":40.660397,"longitude":-73.998091,"name":"25 St","parent_station":"R35"},{"id":"R36S","latitude":40.655144,"longitude":-74.003549,"name":"36 St","parent_station":"R36"},{"id":"R39S","latitude":40.648939,"longitude":-74.010006,"name":"45 St","parent_station":"R39"},{"id":"R40S","latitude":40.645069,"longitude":-74.014034,"name":"53 St","parent_station":"R40"},{"id":"R41S","latitude":40.641362,"longitude":-74.017881,"name":"59 St","parent_station":"R41"},{"id":"N02S","latitude":40.635064,"longitude":-74.011719,"name":"8 Av","parent_station":"N02"},{"id":"N03S","latitude":40.631386,"longitude":-74.005351,"name":"Fort Hamilton Pkwy","parent_station":"N03"},{"id":"N04S","latitude":40.624842,"longitude":-73.996353,"name":"New Utrecht Av","parent_station":"N04"},{"id":"N05S","latitude":40.620671,"longitude":-73.990414,"name":"18 Av","parent_station":"N05"},{"id":"N06S","latitude":40.61741,"longitude":-73.985026,"name":"20 Av","parent_station":"N06"},{"id":"N07S","latitude":40.611815,"longitude":-73.981848,"name":"Bay Pkwy","parent_station":"N07"},{"id":"N08S","latitude":40.603923,"longitude":-73.980353,"name":"Kings Hwy","parent_station":"N08"},{"id":"N09S","latitude":40.597473,"longitude":-73.979137,"name":"Avenue U","parent_station":"N09"},{"id":"N10S","latitude":40.592721,"longitude":-73.97823,"name":"86 St","parent_station":"N10"},{"id":"D43S","latitude":40.577422,"longitude":-73.981233,"name":"Coney Island-Stillwell Av","parent_station":"D43"}],"Q":[{"id":"Q05S","latitude":40.784318,"longitude":-73.947152,"name":"96 St","parent_station":"Q05"},{"id":"Q04S","latitude":40.777891,"longitude":-73.951787,"name":"86 St","parent_station":"Q04"},{"id":"Q03S","latitude":40.768799,"longitude":-73.958424,"name":"72 St","parent_station":"Q03"},{"id":"B08S","latitude":40.764629,"longitude":-73.966113,"name":"Lexington Av/63 St","parent_station":"B08"},{"id":"R14S","latitude":40.764664,"longitude":-73.980658,"name":"57 St-7 Av","parent_station":"R14"},{"id":"R15S","latitude":40.759901,"longitude":-73.984139,"name":"49 St","parent_station":"R15"},{"id":"R16S","latitude":40.754672,"longitude":-73.986754,"name":"Times Sq-42 St","parent_station":"R16"},{"id":"R17S","latitude":40.749567,"longitude":-73.98795,"name":"34 St-Herald Sq","parent_station":"R17"},{"id":"R18S","latitude":40.745494,"longitude":-73.988691,"name":"28 St","parent_station":"R18"},{"id":"R19S","latitude":40.741303,"longitude":-73.989344,"name":"23 St","parent_station":"R19"},{"id":"R20S","latitude":40.735736,"longitude":-73.990568,"name":"14 St-Union Sq","parent_station":"R20"},{"id":"R21S","latitude":40.730328,"longitude":-73.992629,"name":"8 St-NYU","parent_station":"R21"},{"id":"R22S","latitude":40.724329,"longitude":-73.997702,"name":"Prince St","parent_station":"R22"},{"id":"Q01S","latitude":40.718383,"longitude":-74.00046,"name":"Canal St","parent_station":"Q01"},{"id":"R30S","latitude":40.690635,"longitude":-73.981824,"name":"DeKalb Av","parent_station":"R30"},{"id":"D24S","latitude":40.68446,"longitude":-73.97689,"name":"Atlantic Av-Barclays Ctr","parent_station":"D24"},{"id":"D25S","latitude":40.67705,"longitude":-73.972367,"name":"7 Av","parent_station":"D25"},{"id":"D26S","latitude":40.661614,"longitude":-73.962246,"name":"Prospect Park","parent_station":"D26"},{"id":"D27S","latitude":40.655292,"longitude":-73.961495,"name":"Parkside Av","parent_station":"D27"},{"id":"D28S","latitude":40.650527,"longitude":-73.962982,"name":"Church Av","parent_station":"D28"},{"id":"D29S","latitude":40.644031,"longitude":-73.964492,"name":"Beverley Rd","parent_station":"D29"},{"id":"D30S","latitude":40.640927,"longitude":-73.963891,"name":"Cortelyou Rd","parent_station":"D30"},{"id":"D31S","latitude":40.635082,"longitude":-73.962793,"name":"Newkirk Plaza","parent_station":"D31"},{"id":"D32S","latitude":40.62927,"longitude":-73.961639,"name":"Avenue H","parent_station":"D32"},{"id":"D33S","latitude":40.625039,"longitude":-73.960803,"name":"Avenue J","parent_station":"D33"},{"id":"D34S","latitude":40.617618,"longitude":-73.959399,"name":"Avenue M","parent_station":"D34"},{"id":"D35S","latitude":40.60867,"longitude":-73.957734,"name":"Kings Hwy","parent_station":"D35"},{"id":"D37S","latitude":40.5993,"longitude":-73.955929,"name":"Avenue U","parent_station":"D37"},{"id":"D38S","latitude":40.595246,"longitude":-73.955161,"name":"Neck Rd","parent_station":"D38"},{"id":"D39S","latitude":40.586896,"longitude":-73.954155,"name":"Sheepshead Bay","parent_station":"D39"},{"id":"D40S","latitude":40.577621,"longitude":-73.961376,"name":"Brighton Beach","parent_station":"D40"},{"id":"D41S","latitude":40.576312,"longitude":-73.968501,"name":"Ocean Pkwy","parent_station":"D41"},{"id":"D42S","latitude":40.576127,"longitude":-73.975939,"name":"W 8 St-NY Aquarium","parent_station":"D42"},{"id":"D43S","latitude":40.577422,"longitude":-73.981233,"name":"Coney Island-Stillwell Av","parent_station":"D43"}],"R":[{"id":"G08S","latitude":40.721691,"longitude":-73.844521,"name":"Forest Hills-71 Av","parent_station":"G08"},{"id":"G09S","latitude":40.726523,"longitude":-73.852719,"name":"67 Av","parent_station":"G09"},{"id":"G10S","latitude":40.729846,"longitude":-73.861604,"name":"63 Dr-Rego Park","parent_station":"G10"},{"id":"G11S","latitude":40.733106,"longitude":-73.869229,"name":"Woodhaven Blvd","parent_station":"G11"},{"id":"G12S","latitude":40.737015,"longitude":-73.877223,"name":"Grand Av-Newtown","parent_station":"G12"},{"id":"G13S","latitude":40.742454,"longitude":-73.882017,"name":"Elmhurst Av","parent_station":"G13"},{"id":"G14S","latitude":40.746644,"longitude":-73.891338,"name":"Jackson Hts-Roosevelt Av","parent_station":"G14"},{"id":"G15S","latitude":40.749669,"longitude":-73.898453,"name":"65 St","parent_station":"G15"},{"id":"G16S","latitude":40.752885,"longitude":-73.906006,"name":"Northern Blvd","parent_station":"G16"},{"id":"G18S","latitude":40.756312,"longitude":-73.913333,"name":"46 St","parent_station":"G18"},{"id":"G19S","latitude":40.756879,"longitude":-73.92074,"name":"Steinway St","parent_station":"G19"},{"id":"G20S","latitude":40.752039,"longitude":-73.928781,"name":"36 St","parent_station":"G20"},{"id":"G21S","latitude":40.748973,"longitude":-73.937243,"name":"Queens Plaza","parent_station":"G21"},{"id":"R11S","latitude":40.76266,"longitude":-73.967258,"name":"Lexington Av/59 St","parent_station":"R11"},{"id":"R13S","latitude":40.764811,"longitude":-73.973347,"name":"5 Av/59 St","parent_station":"R13"},{"id":"R14S","latitude":40.764664,"longitude":-73.980658,"name":"57 St-7 Av","parent_station":"R14"},{"id":"R15S","latitude":40.759901,"longitude":-73.984139,"name":"49 St","parent_station":"R15"},{"id":"R16S","latitude":40.754672,"longitude":-73.986754,"name":"Times Sq-42 St","parent_station":"R16"},{"id":"R17S","latitude":40.749567,"longitude":-73.98795,"name":"34 St-Herald Sq","parent_station":"R17"},{"id":"R18S","latitude":40.745494,"longitude":-73.988691,"name":"28 St","parent_station":"R18"},{"id":"R19S","latitude":40.741303,"longitude":-73.989344,"name":"23 St","parent_station":"R19"},{"id":"R20S","latitude":40.735736,"longitude":-73.990568,"name":"14 St-Union Sq","parent_station":"R20"},{"id":"R21S","latitude":40.730328,"longitude":-73.992629,"name":"8 St-NYU","parent_station":"R21"},{"id":"R22S","latitude":40.724329,"longitude":-73.997702,"name":"Prince St","parent_station":"R22"},{"id":"R23S","latitude":40.719527,"longitude":-74.001775,"name":"Canal St","parent_station":"R23"},{"id":"R24S","latitude":40.713282,"longitude":-74.006978,"name":"City Hall","parent_station":"R24"},{"id":"R25S","latitude":40.710668,"longitude":-74.011029,"name":"Cortlandt St","parent_station":"R25"},{"id":"R26S","latitude":40.70722,"longitude":-74.013342,"name":"Rector St","parent_station":"R26"},{"id":"R27S","latitude":40.703087,"longitude":-74.012994,"name":"Whitehall St-South Ferry","parent_station":"R27"},{"id":"R28S","latitude":40.6941,"longitude":-73.991777,"name":"Court St","parent_station":"R28"},{"id":"R29S","latitude":40.69218,"longitude":-73.985942,"name":"Jay St-MetroTech","parent_station":"R29"},{"id":"R30S","latitude":40.690635,"longitude":-73.981824,"name":"DeKalb Av","parent_station":"R30"},{"id":"R31S","latitude":40.683666,"longitude":-73.97881,"name":"Atlantic Av-Barclays Ctr","parent_station":"R31"},{"id":"R32S","latitude":40.677316,"longitude":-73.98311,"name":"Union St","parent_station":"R32"},{"id":"R33S","latitude":40.670847,"longitude":-73.988302,"name":"4 Av-9 St","parent_station":"R33"},{"id":"R34S","latitude":40.665414,"longitude":-73.992872,"name":"Prospect Av","parent_station":"R34"},{"id":"R35S","latitude":40.660397,"longitude":-73.998091,"name":"25 St","parent_station":"R35"},{"id":"R36S","latitude":40.655144,"longitude":-74.003549,"name":"36 St","parent_station":"R36"},{"id":"R39S","latitude":40.648939,"longitude":-74.010006,"name":"45 St","parent_station":"R39"},{"id":"R40S","latitude":40.645069,"longitude":-74.014034,"name":"53 St","parent_station":"R40"},{"id":"R41S","latitude":40.641362,"longitude":-74.017881,"name":"59 St","parent_station":"R41"},{"id":"R42S","latitude":40.634967,"longitude":-74.023377,"name":"Bay Ridge Av","parent_station":"R42"},{"id":"R43S","latitude":40.629742,"longitude":-74.02551,"name":"77 St","parent_station":"R43"},{"id":"R44S","latitude":40.622687,"longitude":-74.028398,"name":"86 St","parent_station":"R44"},{"id":"R45S","latitude":40.616622,"longitude":-74.030876,"name":"Bay Ridge-95 St","parent_station":"R45"}],"W":[{"id":"N10N","latitude":40.592721,"longitude":-73.97823,"name":"86 St","parent_station":"N10"},{"id":"N09N","latitude":40.597473,"longitude":-73.979137,"name":"Avenue U","parent_station":"N09"},{"id":"N08N","latitude":40.603923,"longitude":-73.980353,"name":"Kings Hwy","parent_station":"N08"},{"id":"N07N","latitude":40.611815,"longitude":-73.981848,"name":"Bay Pkwy","parent_station":"N07"},{"id":"N06N","latitude":40.61741,"longitude":-73.985026,"name":"20 Av","parent_station":"N06"},{"id":"N05N","latitude":40.620671,"longitude":-73.990414,"name":"18 Av","parent_station":"N05"},{"id":"N04N","latitude":40.624842,"longitude":-73.996353,"name":"New Utrecht Av","parent_station":"N04"},{"id":"N03N","latitude":40.631386,"longitude":-74.005351,"name":"Fort Hamilton Pkwy","parent_station":"N03"},{"id":"N02N","latitude":40.635064,"longitude":-74.011719,"name":"8 Av","parent_station":"N02"},{"id":"R41N","latitude":40.641362,"longitude":-74.017881,"name":"59 St","parent_station":"R41"},{"id":"R40N","latitude":40.645069,"longitude":-74.014034,"name":"53 St","parent_station":"R40"},{"id":"R39N","latitude":40.648939,"longitude":-74.010006,"name":"45 St","parent_station":"R39"},{"id":"R36N","latitude":40.655144,"longitude":-74.003549,"name":"36 St","parent_station":"R36"},{"id":"R35N","latitude":40.660397,"longitude":-73.998091,"name":"25 St","parent_station":"R35"},{"id":"R34N","latitude":40.665414,"longitude":-73.992872,"name":"Prospect Av","parent_station":"R34"},{"id":"R33N","latitude":40.670847,"longitude":-73.988302,"name":"4 Av-9 St","parent_station":"R33"},{"id":"R32N","latitude":40.677316,"longitude":-73.98311,"name":"Union St","parent_station":"R32"},{"id":"R31N","latitude":40.683666,"longitude":-73.97881,"name":"Atlantic Av-Barclays Ctr","parent_station":"R31"},{"id":"R30N","latitude":40.690635,"longitude":-73.981824,"name":"DeKalb Av","parent_station":"R30"},{"id":"R29N","latitude":40.69218,"longitude":-73.985942,"name":"Jay St-MetroTech","parent_station":"R29"},{"id":"R28N","latitude":40.6941,"longitude":-73.991777,"name":"Court St","parent_station":"R28"},{"id":"R27N","latitude":40.703087,"longitude":-74.012994,"name":"Whitehall St-South Ferry","parent_station":"R27"},{"id":"R26N","latitude":40.70722,"longitude":-74.013342,"name":"Rector St","parent_station":"R26"},{"id":"R25N","latitude":40.710668,"longitude":-74.011029,"name":"Cortlandt St","parent_station":"R25"},{"id":"R24N","latitude":40.713282,"longitude":-74.006978,"name":"City Hall","parent_station":"R24"},{"id":"R23N","latitude":40.719527,"longitude":-74.001775,"name":"Canal St","parent_station":"R23"},{"id":"R22N","latitude":40.724329,"longitude":-73.997702,"name":"Prince St","parent_station":"R22"},{"id":"R21N","latitude":40.730328,"longitude":-73.992629,"name":"8 St-NYU","parent_station":"R21"},{"id":"R20N","latitude":40.735736,"longitude":-73.990568,"name":"14 St-Union Sq","parent_station":"R20"},{"id":"R19N","latitude":40.741303,"longitude":-73.989344,"name":"23 St","parent_station":"R19"},{"id":"R18N","latitude":40.745494,"longitude":-73.988691,"name":"28 St","parent_station":"R18"},{"id":"R17N","latitude":40.749567,"longitude":-73.98795,"name":"34 St-Herald Sq","parent_station":"R17"},{"id":"R16N","latitude":40.754672,"longitude":-73.986754,"name":"Times Sq-42 St","parent_station":"R16"},{"id":"R15N","latitude":40.759901,"longitude":-73.984139,"name":"49 St","parent_station":"R15"},{"id":"R14N","latitude":40.764664,"longitude":-73.980658,"name":"57 St-7 Av","parent_station":"R14"},{"id":"R13N","latitude":40.764811,"longitude":-73.973347,"name":"5 Av/59 St","parent_station":"R13"},{"id":"R11N","latitude":40.76266,"longitude":-73.967258,"name":"Lexington Av/59 St","parent_station":"R11"},{"id":"R09N","latitude":40.750582,"longitude":-73.940202,"name":"Queensboro Plaza","parent_station":"R09"},{"id":"R08N","latitude":40.752882,"longitude":-73.932755,"name":"39 Av-Dutch Kills","parent_station":"R08"},{"id":"R06N","latitude":40.756804,"longitude":-73.929575,"name":"36 Av","parent_station":"R06"},{"id":"R05N","latitude":40.76182,"longitude":-73.925508,"name":"Broadway","parent_station":"R05"},{"id":"R04N","latitude":40.766779,"longitude":-73.921479,"name":"30 Av","parent_station":"R04"},{"id":"R03N","latitude":40.770258,"longitude":-73.917843,"name":"Astoria Blvd","parent_station":"R03"},{"id":"R01N","latitude":40.775036,"longitude":-73.912034,"name":"Astoria-Ditmars Blvd","parent_station":"R01"}],"GS":[{"id":"901N","latitude":40.752769,"longitude":-73.979189,"name":"Grand Central-42 St","parent_station":"901"},{"id":"902N","latitude":40.755983,"longitude":-73.986229,"name":"Times Sq-42 St","parent_station":"902"}],"FS":[{"id":"S01S","latitude":40.680596,"longitude":-73.955827,"name":"Franklin Av","parent_station":"S01"},{"id":"S03S","latitude":40.674772,"longitude":-73.957624,"name":"Park Pl","parent_station":"S03"},{"id":"S04S","latitude":40.670343,"longitude":-73.959245,"name":"Botanic Garden","parent_station":"S04"},{"id":"D26S","latitude":40.661614,"longitude":-73.962246,"name":"Prospect Park","parent_station":"D26"}],"H":[{"id":"H04S","latitude":40.608382,"longitude":-73.815925,"name":"Broad Channel","parent_station":"H04"},{"id":"H12S","latitude":40.588034,"longitude":-73.813641,"name":"Beach 90 St","parent_station":"H12"},{"id":"H13S","latitude":40.585307,"longitude":-73.820558,"name":"Beach 98 St","parent_station":"H13"},{"id":"H14S","latitude":40.583209,"longitude":-73.827559,"name":"Beach 105 St","parent_station":"H14"},{"id":"H15S","latitude":40.580903,"longitude":-73.835592,"name":"Rockaway Park-Beach 116 St","parent_station":"H15"}],"1":[{"id":"101S","latitude":40.889248,"longitude":-73.898583,"name":"Van Cortlandt Park-242 St","parent_station":"101"},{"id":"103S","latitude":40.884667,"longitude":-73.90087,"name":"238 St","parent_station":"103"},{"id":"104S","latitude":40.878856,"longitude":-73.904834,"name":"231 St","parent_station":"104"},{"id":"106S","latitude":40.874561,"longitude":-73.909831,"name":"Marble Hill-225 St","parent_station":"106"},{"id":"107S","latitude":40.869444,"longitude":-73.915279,"name":"215 St","parent_station":"107"},{"id":"108S","latitude":40.864621,"longitude":-73.918822,"name":"207 St","parent_station":"108"},{"id":"109S","latitude":40.860531,"longitude":-73.925536,"name":"Dyckman St","parent_station":"109"},{"id":"110S","latitude":40.855225,"longitude":-73.929412,"name":"191 St","parent_station":"110"},{"id":"111S","latitude":40.849505,"longitude":-73.933596,"name":"181 St","parent_station":"111"},{"id":"112S","latitude":40.840556,"longitude":-73.940133,"name":"168 St-Washington Hts","parent_station":"112"},{"id":"113S","latitude":40.834041,"longitude":-73.94489,"name":"157 St","parent_station":"113"},{"id":"114S","latitude":40.826551,"longitude":-73.95036,"name":"145 St","parent_station":"114"},{"id":"115S","latitude":40.822008,"longitude":-73.953676,"name":"137 St-City College","parent_station":"115"},{"id":"116S","latitude":40.815581,"longitude":-73.958372,"name":"125 St","parent_station":"116"},{"id":"117S","latitude":40.807722,"longitude":-73.96411,"name":"116 St-Columbia University","parent_station":"117"},{"id":"118S","latitude":40.803967,"longitude":-73.966847,"name":"Cathedral Pkwy (110 St)","parent_station":"118"},{"id":"119S","latitude":40.799446,"longitude":-73.968379,"name":"103 St","parent_station":"119"},{"id":"120S","latitude":40.793919,"longitude":-73.972323,"name":"96 St","parent_station":"120"},{"id":"121S","latitude":40.788644,"longitude":-73.976218,"name":"86 St","parent_station":"121"},{"id":"122S","latitude":40.783934,"longitude":-73.979917,"name":"79 St","parent_station":"122"},{"id":"123S","latitude":40.778453,"longitude":-73.98197,"name":"72 St","parent_station":"123"},{"id":"124S","latitude":40.77344,"longitude":-73.982209,"name":"66 St-Lincoln Center","parent_station":"124"},{"id":"125S","latitude":40.768247,"longitude":-73.981929,"name":"59 St-Columbus Circle","parent_station":"125"},{"id":"126S","latitude":40.761728,"longitude":-73.983849,"name":"50 St","parent_station":"126"},{"id":"127S","latitude":40.75529,"longitude":-73.987495,"name":"Times Sq-42 St","parent_station":"127"},{"id":"128S","latitude":40.750373,"longitude":-73.991057,"name":"34 St-Penn Station","parent_station":"128"},{"id":"129S","latitude":40.747215,"longitude":-73.993365,"name":"28 St","parent_station":"129"},{"id":"130S","latitude":40.744081,"longitude":-73.995657,"name":"23 St","parent_station":"130"},{"id":"131S","latitude":40.74104,"longitude":-73.997871,"name":"18 St","parent_station":"131"},{"id":"132S","latitude":40.737826,"longitude":-74.000201,"name":"14 St","parent_station":"132"},{"id":"133S","latitude":40.733422,"longitude":-74.002906,"name":"Christopher St-Stonewall","parent_station":"133"},{"id":"134S","latitude":40.728251,"longitude":-74.005367,"name":"Houston St","parent_station":"134"},{"id":"135S","latitude":40.722854,"longitude":-74.006277,"name":"Canal St","parent_station":"135"},{"id":"136S","latitude":40.719318,"longitude":-74.006886,"name":"Franklin St","parent_station":"136"},{"id":"137S","latitude":40.715478,"longitude":-74.009266,"name":"Chambers St","parent_station":"137"},{"id":"138S","latitude":40.711835,"longitude":-74.012188,"name":"WTC Cortlandt","parent_station":"138"},{"id":"139S","latitude":40.707513,"longitude":-74.013783,"name":"Rector St","parent_station":"139"},{"id":"142S","latitude":40.702068,"longitude":-74.013664,"name":"South Ferry","parent_station":"142"}],"2":[{"id":"201S","latitude":40.903125,"longitude":-73.85062,"name":"Wakefield-241 St","parent_station":"201"},{"id":"204S","latitude":40.898379,"longitude":-73.854376,"name":"Nereid Av","parent_station":"204"},{"id":"205S","latitude":40.893193,"longitude":-73.857473,"name":"233 St","parent_station":"205"},{"id":"206S","latitude":40.888022,"longitude":-73.860341,"name":"225 St","parent_station":"206"},{"id":"207S","latitude":40.883895,"longitude":-73.862633,"name":"219 St","parent_station":"207"},{"id":"208S","latitude":40.87785,"longitude":-73.866256,"name":"Gun Hill Rd","parent_station":"208"},{"id":"209S","latitude":40.871356,"longitude":-73.867164,"name":"Burke Av","parent_station":"209"},{"id":"210S","latitude":40.865462,"longitude":-73.867352,"name":"Allerton Av","parent_station":"210"},{"id":"211S","latitude":40.857192,"longitude":-73.867615,"name":"Pelham Pkwy","parent_station":"211"},{"id":"212S","latitude":40.848828,"longitude":-73.868457,"name":"Bronx Park East","parent_station":"212"},{"id":"213S","latitude":40.841894,"longitude":-73.873488,"name":"E 180 St","parent_station":"213"},{"id":"214S","latitude":40.840295,"longitude":-73.880049,"name":"West Farms Sq-E Tremont Av","parent_station":"214"},{"id":"215S","latitude":40.837288,"longitude":-73.887734,"name":"174 St","parent_station":"215"},{"id":"216S","latitude":40.829993,"longitude":-73.891865,"name":"Freeman St","parent_station":"216"},{"id":"217S","latitude":40.824073,"longitude":-73.893064,"name":"Simpson St","parent_station":"217"},{"id":"218S","latitude":40.822181,"longitude":-73.896736,"name":"Intervale Av","parent_station":"218"},{"id":"219S","latitude":40.819585,"longitude":-73.90177,"name":"Prospect Av","parent_station":"219"},{"id":"220S","latitude":40.81649,"longitude":-73.907807,"name":"Jackson Av","parent_station":"220"},{"id":"221S","latitude":40.816109,"longitude":-73.917757,"name":"3 Av-149 St","parent_station":"221"},{"id":"222S","latitude":40.81841,"longitude":-73.926718,"name":"149 St-Grand Concourse","parent_station":"222"},{"id":"224S","latitude":40.814229,"longitude":-73.94077,"name":"135 St","parent_station":"224"},{"id":"225S","latitude":40.807754,"longitude":-73.945495,"name":"125 St","parent_station":"225"},{"id":"226S","latitude":40.802098,"longitude":-73.949625,"name":"116 St","parent_station":"226"},{"id":"227S","latitude":40.799075,"longitude":-73.951822,"name":"Central Park North (110 St)","parent_station":"227"},{"id":"120S","latitude":40.793919,"longitude":-73.972323,"name":"96 St","parent_station":"120"},{"id":"121S","latitude":40.788644,"longitude":-73.976218,"name":"86 St","parent_station":"121"},{"id":"122S","latitude":40.783934,"longitude":-73.979917,"name":"79 St","parent_station":"122"},{"id":"123S","latitude":40.778453,"longitude":-73.98197,"name":"72 St","parent_station":"123"},{"id":"124S","latitude":40.77344,"longitude":-73.982209,"name":"66 St-Lincoln Center","parent_station":"124"},{"id":"125S","latitude":40.768247,"longitude":-73.981929,"name":"59 St-Columbus Circle","parent_station":"125"},{"id":"126S","latitude":40.761728,"longitude":-73.983849,"name":"50 St","parent_station":"126"},{"id":"127S","latitude":40.75529,"longitude":-73.987495,"name":"Times Sq-42 St","parent_station":"127"},{"id":"128S","latitude":40.750373,"longitude":-73.991057,"name":"34 St-Penn Station","parent_station":"128"},{"id":"129S","latitude":40.747215,"longitude":-73.993365,"name":"28 St","parent_station":"129"},{"id":"130S","latitude":40.744081,"longitude":-73.995657,"name":"23 St","parent_station":"130"},{"id":"131S","latitude":40.74104,"longitude":-73.997871,"name":"18 St","parent_station":"131"},{"id":"132S","latitude":40.737826,"longitude":-74.000201,"name":"14 St","parent_station":"132"},{"id":"133S","latitude":40.733422,"longitude":-74.002906,"name":"Christopher St-Stonewall","parent_station":"133"},{"id":"134S","latitude":40.728251,"longitude":-74.005367,"name":"Houston St","parent_station":"134"},{"id":"135S","latitude":40.722854,"longitude":-74.006277,"name":"Canal St","parent_station":"135"},{"id":"136S","latitude":40.719318,"longitude":-74.006886,"name":"Franklin St","parent_station":"136"},{"id":"137S","latitude":40.715478,"longitude":-74.009266,"name":"Chambers St","parent_station":"137"},{"id":"228S","latitude":40.713051,"longitude":-74.008811,"name":"Park Place","parent_station":"228"},{"id":"229S","latitude":40.709416,"longitude":-74.006571,"name":"Fulton St","parent_station":"229"},{"id":"230S","latitude":40.706821,"longitude":-74.0091,"name":"Wall St","parent_station":"230"},{"id":"231S","latitude":40.697466,"longitude":-73.993086,"name":"Clark St","parent_station":"231"},{"id":"232S","latitude":40.693219,"longitude":-73.989998,"name":"Borough Hall","parent_station":"232"},{"id":"233S","latitude":40.690545,"longitude":-73.985065,"name":"Hoyt St","parent_station":"233"},{"id":"234S","latitude":40.688246,"longitude":-73.980492,"name":"Nevins St","parent_station":"234"},{"id":"235S","latitude":40.684359,"longitude":-73.977666,"name":"Atlantic Av-Barclays Ctr","parent_station":"235"},{"id":"236S","latitude":40.680829,"longitude":-73.975098,"name":"Bergen St","parent_station":"236"},{"id":"237S","latitude":40.675235,"longitude":-73.971046,"name":"Grand Army Plaza","parent_station":"237"},{"id":"238S","latitude":40.671987,"longitude":-73.964375,"name":"Eastern Pkwy-Brooklyn Museum","parent_station":"238"},{"id":"239S","latitude":40.670682,"longitude":-73.958131,"name":"Franklin Av-Medgar Evers College","parent_station":"239"},{"id":"241S","latitude":40.667883,"longitude":-73.950683,"name":"President St-Medgar Evers College","parent_station":"241"},{"id":"242S","latitude":40.662742,"longitude":-73.95085,"name":"Sterling St","parent_station":"242"},{"id":"243S","latitude":40.656652,"longitude":-73.9502,"name":"Winthrop St","parent_station":"243"},{"id":"244S","latitude":40.650843,"longitude":-73.949575,"name":"Church Av","parent_station":"244"},{"id":"245S","latitude":40.645098,"longitude":-73.948959,"name":"Beverly Rd","parent_station":"245"},{"id":"246S","latitude":40.639967,"longitude":-73.948411,"name":"Newkirk Av-Little Haiti","parent_station":"246"},{"id":"247S","latitude":40.632836,"longitude":-73.947642,"name":"Flatbush Av-Brooklyn College","parent_station":"247"}],"3":[{"id":"301S","latitude":40.82388,"longitude":-73.93647,"name":"Harlem-148 St","parent_station":"301"},{"id":"302S","latitude":40.820421,"longitude":-73.936245,"name":"145 St","parent_station":"302"},{"id":"224S","latitude":40.814229,"longitude":-73.94077,"name":"135 St","parent_station":"224"},{"id":"225S","latitude":40.807754,"longitude":-73.945495,"name":"125 St","parent_station":"225"},{"id":"226S","latitude":40.802098,"longitude":-73.949625,"name":"116 St","parent_station":"226"},{"id":"227S","latitude":40.799075,"longitude":-73.951822,"name":"Central Park North (110 St)","parent_station":"227"},{"id":"120S","latitude":40.793919,"longitude":-73.972323,"name":"96 St","parent_station":"120"},{"id":"123S","latitude":40.778453,"longitude":-73.98197,"name":"72 St","parent_station":"123"},{"id":"127S","latitude":40.75529,"longitude":-73.987495,"name":"Times Sq-42 St","parent_station":"127"},{"id":"128S","latitude":40.750373,"longitude":-73.991057,"name":"34 St-Penn Station","parent_station":"128"},{"id":"132S","latitude":40.737826,"longitude":-74.000201,"name":"14 St","parent_station":"132"},{"id":"137S","latitude":40.715478,"longitude":-74.009266,"name":"Chambers St","parent_station":"137"},{"id":"228S","latitude":40.713051,"longitude":-74.008811,"name":"Park Place","parent_station":"228"},{"id":"229S","latitude":40.709416,"longitude":-74.006571,"name":"Fulton St","parent_station":"229"},{"id":"230S","latitude":40.706821,"longitude":-74.0091,"name":"Wall St","parent_station":"230"},{"id":"231S","latitude":40.697466,"longitude":-73.993086,"name":"Clark St","parent_station":"231"},{"id":"232S","latitude":40.693219,"longitude":-73.989998,"name":"Borough Hall","parent_station":"232"},{"id":"233S","latitude":40.690545,"longitude":-73.985065,"name":"Hoyt St","parent_station":"233"},{"id":"234S","latitude":40.688246,"longitude":-73.980492,"name":"Nevins St","parent_station":"234"},{"id":"235S","latitude":40.684359,"longitude":-73.977666,"name":"Atlantic Av-Barclays Ctr","parent_station":"235"},{"id":"236S","latitude":40.680829,"longitude":-73.975098,"name":"Bergen St","parent_station":"236"},{"id":"237S","latitude":40.675235,"longitude":-73.971046,"name":"Grand Army Plaza","parent_station":"237"},{"id":"238S","latitude":40.671987,"longitude":-73.964375,"name":"Eastern Pkwy-Brooklyn Museum","parent_station":"238"},{"id":"239S","latitude":40.670682,"longitude":-73.958131,"name":"Franklin Av-Medgar Evers College","parent_station":"239"},{"id":"248S","latitude":40.669847,"longitude":-73.950466,"name":"Nostrand Av","parent_station":"248"},{"id":"249S","latitude":40.669399,"longitude":-73.942161,"name":"Kingston Av","parent_station":"249"},{"id":"250S","latitude":40.668897,"longitude":-73.932942,"name":"Crown Hts-Utica Av","parent_station":"250"},{"id":"251S","latitude":40.664717,"longitude":-73.92261,"name":"Sutter Av-Rutland Rd","parent_station":"251"},{"id":"252S","latitude":40.661453,"longitude":-73.916327,"name":"Saratoga Av","parent_station":"252"},{"id":"253S","latitude":40.662549,"longitude":-73.908946,"name":"Rockaway Av","parent_station":"253"},{"id":"254S","latitude":40.663515,"longitude":-73.902447,"name":"Junius St","parent_station":"254"},{"id":"255S","latitude":40.664635,"longitude":-73.894895,"name":"Pennsylvania Av","parent_station":"255"},{"id":"256S","latitude":40.665449,"longitude":-73.889395,"name":"Van Siclen Av","parent_station":"256"},{"id":"257S","latitude":40.666235,"longitude":-73.884079,"name":"New Lots Av","parent_station":"257"}],"4":[{"id":"401S","latitude":40.886037,"longitude":-73.878751,"name":"Woodlawn","parent_station":"401"},{"id":"402S","latitude":40.87975,"longitude":-73.884655,"name":"Mosholu Pkwy","parent_station":"402"},{"id":"405S","latitude":40.873412,"longitude":-73.890064,"name":"Bedford Park Blvd-Lehman College","parent_station":"405"},{"id":"406S","latitude":40.86776,"longitude":-73.897174,"name":"Kingsbridge Rd","parent_station":"406"},{"id":"407S","latitude":40.862803,"longitude":-73.901034,"name":"Fordham Rd","parent_station":"407"},{"id":"408S","latitude":40.858407,"longitude":-73.903879,"name":"183 St","parent_station":"408"},{"id":"409S","latitude":40.853453,"longitude":-73.907684,"name":"Burnside Av","parent_station":"409"},{"id":"410S","latitude":40.84848,"longitude":-73.911794,"name":"176 St","parent_station":"410"},{"id":"411S","latitude":40.844434,"longitude":-73.914685,"name":"Mt Eden Av","parent_station":"411"},{"id":"412S","latitude":40.840075,"longitude":-73.917791,"name":"170 St","parent_station":"412"},{"id":"413S","latitude":40.835537,"longitude":-73.9214,"name":"167 St","parent_station":"413"},{"id":"414S","latitude":40.827994,"longitude":-73.925831,"name":"161 St-Yankee Stadium","parent_station":"414"},{"id":"415S","latitude":40.818375,"longitude":-73.927351,"name":"149 St-Grand Concourse","parent_station":"415"},{"id":"416S","latitude":40.813224,"longitude":-73.929849,"name":"138 St-Grand Concourse","parent_station":"416"},{"id":"621S","latitude":40.804138,"longitude":-73.937594,"name":"125 St","parent_station":"621"},{"id":"622S","latitude":40.798629,"longitude":-73.941617,"name":"116 St","parent_station":"622"},{"id":"623S","latitude":40.79502,"longitude":-73.94425,"name":"110 St","parent_station":"623"},{"id":"624S","latitude":40.7906,"longitude":-73.947478,"name":"103 St","parent_station":"624"},{"id":"625S","latitude":40.785672,"longitude":-73.95107,"name":"96 St","parent_station":"625"},{"id":"626S","latitude":40.779492,"longitude":-73.955589,"name":"86 St","parent_station":"626"},{"id":"627S","latitude":40.77362,"longitude":-73.959874,"name":"77 St","parent_station":"627"},{"id":"628S","latitude":40.768141,"longitude":-73.96387,"name":"68 St-Hunter College","parent_station":"628"},{"id":"629S","latitude":40.762526,"longitude":-73.967967,"name":"59 St","parent_station":"629"},{"id":"630S","latitude":40.757107,"longitude":-73.97192,"name":"51 St","parent_station":"630"},{"id":"631S","latitude":40.751776,"longitude":-73.976848,"name":"Grand Central-42 St","parent_station":"631"},{"id":"632S","latitude":40.746081,"longitude":-73.982076,"name":"33 St","parent_station":"632"},{"id":"633S","latitude":40.74307,"longitude":-73.984264,"name":"28 St","parent_station":"633"},{"id":"634S","latitude":40.739864,"longitude":-73.986599,"name":"23 St","parent_station":"634"},{"id":"635S","latitude":40.734673,"longitude":-73.989951,"name":"14 St-Union Sq","parent_station":"635"},{"id":"636S","latitude":40.730054,"longitude":-73.99107,"name":"Astor Pl","parent_station":"636"},{"id":"637S","latitude":40.725915,"longitude":-73.994659,"name":"Bleecker St","parent_station":"637"},{"id":"638S","latitude":40.722301,"longitude":-73.997141,"name":"Spring St","parent_station":"638"},{"id":"639S","latitude":40.718803,"longitude":-74.000193,"name":"Canal St","parent_station":"639"},{"id":"640S","latitude":40.713065,"longitude":-74.004131,"name":"Brooklyn Bridge-City Hall","parent_station":"640"},{"id":"418S","latitude":40.710368,"longitude":-74.009509,"name":"Fulton St","parent_station":"418"},{"id":"419S","latitude":40.707557,"longitude":-74.011862,"name":"Wall St","parent_station":"419"},{"id":"420S","latitude":40.704817,"longitude":-74.014065,"name":"Bowling Green","parent_station":"420"},{"id":"423S","latitude":40.692404,"longitude":-73.990151,"name":"Borough Hall","parent_station":"423"},{"id":"234S","latitude":40.688246,"longitude":-73.980492,"name":"Nevins St","parent_station":"234"},{"id":"235S","latitude":40.684359,"longitude":-73.977666,"name":"Atlantic Av-Barclays Ctr","parent_station":"235"},{"id":"236S","latitude":40.680829,"longitude":-73.975098,"name":"Bergen St","parent_station":"236"},{"id":"237S","latitude":40.675235,"longitude":-73.971046,"name":"Grand Army Plaza","parent_station":"237"},{"id":"238S","latitude":40.671987,"longitude":-73.964375,"name":"Eastern Pkwy-Brooklyn Museum","parent_station":"238"},{"id":"239S","latitude":40.670682,"longitude":-73.958131,"name":"Franklin Av-Medgar Evers College","parent_station":"239"},{"id":"248S","latitude":40.669847,"longitude":-73.950466,"name":"Nostrand Av","parent_station":"248"},{"id":"249S","latitude":40.669399,"longitude":-73.942161,"name":"Kingston Av","parent_station":"249"},{"id":"250S","latitude":40.668897,"longitude":-73.932942,"name":"Crown Hts-Utica Av","parent_station":"250"},{"id":"251S","latitude":40.664717,"longitude":-73.92261,"name":"Sutter Av-Rutland Rd","parent_station":"251"},{"id":"252S","latitude":40.661453,"longitude":-73.916327,"name":"Saratoga Av","parent_station":"252"},{"id":"253S","latitude":40.662549,"longitude":-73.908946,"name":"Rockaway Av","parent_station":"253"},{"id":"254S","latitude":40.663515,"longitude":-73.902447,"name":"Junius St","parent_station":"254"},{"id":"255S","latitude":40.664635,"longitude":-73.894895,"name":"Pennsylvania Av","parent_station":"255"},{"id":"256S","latitude":40.665449,"longitude":-73.889395,"name":"Van Siclen Av","parent_station":"256"},{"id":"257S","latitude":40.666235,"longitude":-73.884079,"name":"New Lots Av","parent_station":"257"}],"5":[{"id":"257N","latitude":40.666235,"longitude":-73.884079,"name":"New Lots Av","parent_station":"257"},{"id":"256N","latitude":40.665449,"longitude":-73.889395,"name":"Van Siclen Av","parent_station":"256"},{"id":"255N","latitude":40.664635,"longitude":-73.894895,"name":"Pennsylvania Av","parent_station":"255"},{"id":"254N","latitude":40.663515,"longitude":-73.902447,"name":"Junius St","parent_station":"254"},{"id":"253N","latitude":40.662549,"longitude":-73.908946,"name":"Rockaway Av","parent_station":"253"},{"id":"252N","latitude":40.661453,"longitude":-73.916327,"name":"Saratoga Av","parent_station":"252"},{"id":"251N","latitude":40.664717,"longitude":-73.92261,"name":"Sutter Av-Rutland Rd","parent_station":"251"},{"id":"250N","latitude":40.668897,"longitude":-73.932942,"name":"Crown Hts-Utica Av","parent_station":"250"},{"id":"249N","latitude":40.669399,"longitude":-73.942161,"name":"Kingston Av","parent_station":"249"},{"id":"248N","latitude":40.669847,"longitude":-73.950466,"name":"Nostrand Av","parent_station":"248"},{"id":"239N","latitude":40.670682,"longitude":-73.958131,"name":"Franklin Av-Medgar Evers College","parent_station":"239"},{"id":"235N","latitude":40.684359,"longitude":-73.977666,"name":"Atlantic Av-Barclays Ctr","parent_station":"235"},{"id":"234N","latitude":40.688246,"longitude":-73.980492,"name":"Nevins St","parent_station":"234"},{"id":"423N","latitude":40.692404,"longitude":-73.990151,"name":"Borough Hall","parent_station":"423"},{"id":"420N","latitude":40.704817,"longitude":-74.014065,"name":"Bowling Green","parent_station":"420"},{"id":"419N","latitude":40.707557,"longitude":-74.011862,"name":"Wall St","parent_station":"419"},{"id":"418N","latitude":40.710368,"longitude":-74.009509,"name":"Fulton St","parent_station":"418"},{"id":"640N","latitude":40.713065,"longitude":-74.004131,"name":"Brooklyn Bridge-City Hall","parent_station":"640"},{"id":"635N","latitude":40.734673,"longitude":-73.989951,"name":"14 St-Union Sq","parent_station":"635"},{"id":"631N","latitude":40.751776,"longitude":-73.976848,"name":"Grand Central-42 St","parent_station":"631"},{"id":"629N","latitude":40.762526,"longitude":-73.967967,"name":"59 St","parent_station":"629"},{"id":"626N","latitude":40.779492,"longitude":-73.955589,"name":"86 St","parent_station":"626"},{"id":"621N","latitude":40.804138,"longitude":-73.937594,"name":"125 St","parent_station":"621"},{"id":"416N","latitude":40.813224,"longitude":-73.929849,"name":"138 St-Grand Concourse","parent_station":"416"},{"id":"222N","latitude":40.81841,"longitude":-73.926718,"name":"149 St-Grand Concourse","parent_station":"222"},{"id":"221N","latitude":40.816109,"longitude":-73.917757,"name":"3 Av-149 St","parent_station":"221"},{"id":"220N","latitude":40.81649,"longitude":-73.907807,"name":"Jackson Av","parent_station":"220"},{"id":"219N","latitude":40.819585,"longitude":-73.90177,"name":"Prospect Av","parent_station":"219"},{"id":"218N","latitude":40.822181,"longitude":-73.896736,"name":"Intervale Av","parent_station":"218"},{"id":"217N","latitude":40.824073,"longitude":-73.893064,"name":"Simpson St","parent_station":"217"},{"id":"216N","latitude":40.829993,"longitude":-73.891865,"name":"Freeman St","parent_station":"216"},{"id":"215N","latitude":40.837288,"longitude":-73.887734,"name":"174 St","parent_station":"215"},{"id":"214N","latitude":40.840295,"longitude":-73.880049,"name":"West Farms Sq-E Tremont Av","parent_station":"214"},{"id":"213N","latitude":40.841894,"longitude":-73.873488,"name":"E 180 St","parent_station":"213"},{"id":"505N","latitude":40.854364,"longitude":-73.860495,"name":"Morris Park","parent_station":"505"},{"id":"504N","latitude":40.858985,"longitude":-73.855359,"name":"Pelham Pkwy","parent_station":"504"},{"id":"503N","latitude":40.869526,"longitude":-73.846384,"name":"Gun Hill Rd","parent_station":"503"},{"id":"502N","latitude":40.878663,"longitude":-73.838591,"name":"Baychester Av","parent_station":"502"},{"id":"501N","latitude":40.8883,"longitude":-73.830834,"name":"Eastchester-Dyre Av","parent_station":"501"}],"6":[{"id":"601S","latitude":40.852462,"longitude":-73.828121,"name":"Pelham Bay Park","parent_station":"601"},{"id":"602S","latitude":40.84681,"longitude":-73.832569,"name":"Buhre Av","parent_station":"602"},{"id":"603S","latitude":40.843863,"longitude":-73.836322,"name":"Middletown Rd","parent_station":"603"},{"id":"604S","latitude":40.839892,"longitude":-73.842952,"name":"Westchester Sq-E Tremont Av","parent_station":"604"},{"id":"606S","latitude":40.836488,"longitude":-73.847036,"name":"Zerega Av","parent_station":"606"},{"id":"607S","latitude":40.834255,"longitude":-73.851222,"name":"Castle Hill Av","parent_station":"607"},{"id":"608S","latitude":40.833226,"longitude":-73.860816,"name":"Parkchester","parent_station":"608"},{"id":"609S","latitude":40.831509,"longitude":-73.867618,"name":"St Lawrence Av","parent_station":"609"},{"id":"610S","latitude":40.829521,"longitude":-73.874516,"name":"Morrison Av-Soundview","parent_station":"610"},{"id":"611S","latitude":40.828584,"longitude":-73.879159,"name":"Elder Av","parent_station":"611"},{"id":"612S","latitude":40.826525,"longitude":-73.886283,"name":"Whitlock Av","parent_station":"612"},{"id":"613S","latitude":40.820948,"longitude":-73.890549,"name":"Hunts Point Av","parent_station":"613"},{"id":"614S","latitude":40.816104,"longitude":-73.896435,"name":"Longwood Av","parent_station":"614"},{"id":"615S","latitude":40.812118,"longitude":-73.904098,"name":"E 149 St","parent_station":"615"},{"id":"616S","latitude":40.808719,"longitude":-73.907657,"name":"E 143 St-St Mary's St","parent_station":"616"},{"id":"617S","latitude":40.805368,"longitude":-73.914042,"name":"Cypress Av","parent_station":"617"},{"id":"618S","latitude":40.807566,"longitude":-73.91924,"name":"Brook Av","parent_station":"618"},{"id":"619S","latitude":40.810476,"longitude":-73.926138,"name":"3 Av-138 St","parent_station":"619"},{"id":"621S","latitude":40.804138,"longitude":-73.937594,"name":"125 St","parent_station":"621"},{"id":"622S","latitude":40.798629,"longitude":-73.941617,"name":"116 St","parent_station":"622"},{"id":"623S","latitude":40.79502,"longitude":-73.94425,"name":"110 St","parent_station":"623"},{"id":"624S","latitude":40.7906,"longitude":-73.947478,"name":"103 St","parent_station":"624"},{"id":"625S","latitude":40.785672,"longitude":-73.95107,"name":"96 St","parent_station":"625"},{"id":"626S","latitude":40.779492,"longitude":-73.955589,"name":"86 St","parent_station":"626"},{"id":"627S","latitude":40.77362,"longitude":-73.959874,"name":"77 St","parent_station":"627"},{"id":"628S","latitude":40.768141,"longitude":-73.96387,"name":"68 St-Hunter College","parent_station":"628"},{"id":"629S","latitude":40.762526,"longitude":-73.967967,"name":"59 St","parent_station":"629"},{"id":"630S","latitude":40.757107,"longitude":-73.97192,"name":"51 St","parent_station":"630"},{"id":"631S","latitude":40.751776,"longitude":-73.976848,"name":"Grand Central-42 St","parent_station":"631"},{"id":"632S","latitude":40.746081,"longitude":-73.982076,"name":"33 St","parent_station":"632"},{"id":"633S","latitude":40.74307,"longitude":-73.984264,"name":"28 St","parent_station":"633"},{"id":"634S","latitude":40.739864,"longitude":-73.986599,"name":"23 St","parent_station":"634"},{"id":"635S","latitude":40.734673,"longitude":-73.989951,"name":"14 St-Union Sq","parent_station":"635"},{"id":"636S","latitude":40.730054,"longitude":-73.99107,"name":"Astor Pl","parent_station":"636"},{"id":"637S","latitude":40.725915,"longitude":-73.994659,"name":"Bleecker St","parent_station":"637"},{"id":"638S","latitude":40.722301,"longitude":-73.997141,"name":"Spring St","parent_station":"638"},{"id":"639S","latitude":40.718803,"longitude":-74.000193,"name":"Canal St","parent_station":"639"},{"id":"640S","latitude":40.713065,"longitude":-74.004131,"name":"Brooklyn Bridge-City Hall","parent_station":"640"}],"6X":[{"id":"601S","latitude":40.852462,"longitude":-73.828121,"name":"Pelham Bay Park","parent_station":"601"},{"id":"602S","latitude":40.84681,"longitude":-73.832569,"name":"Buhre Av","parent_station":"602"},{"id":"603S","latitude":40.843863,"longitude":-73.836322,"name":"Middletown Rd","parent_station":"603"},{"id":"604S","latitude":40.839892,"longitude":-73.842952,"name":"Westchester Sq-E Tremont Av","parent_station":"604"},{"id":"606S","latitude":40.836488,"longitude":-73.847036,"name":"Zerega Av","parent_station":"606"},{"id":"607S","latitude":40.834255,"longitude":-73.851222,"name":"Castle Hill Av","parent_station":"607"},{"id":"608S","latitude":40.833226,"longitude":-73.860816,"name":"Parkchester","parent_station":"608"},{"id":"613S","latitude":40.820948,"longitude":-73.890549,"name":"Hunts Point Av","parent_station":"613"},{"id":"619S","latitude":40.810476,"longitude":-73.926138,"name":"3 Av-138 St","parent_station":"619"},{"id":"621S","latitude":40.804138,"longitude":-73.937594,"name":"125 St","parent_station":"621"},{"id":"622S","latitude":40.798629,"longitude":-73.941617,"name":"116 St","parent_station":"622"},{"id":"623S","latitude":40.79502,"longitude":-73.94425,"name":"110 St","parent_station":"623"},{"id":"624S","latitude":40.7906,"longitude":-73.947478,"name":"103 St","parent_station":"624"},{"id":"625S","latitude":40.785672,"longitude":-73.95107,"name":"96 St","parent_station":"625"},{"id":"626S","latitude":40.779492,"longitude":-73.955589,"name":"86 St","parent_station":"626"},{"id":"627S","latitude":40.77362,"longitude":-73.959874,"name":"77 St","parent_station":"627"},{"id":"628S","latitude":40.768141,"longitude":-73.96387,"name":"68 St-Hunter College","parent_station":"628"},{"id":"629S","latitude":40.762526,"longitude":-73.967967,"name":"59 St","parent_station":"629"},{"id":"630S","latitude":40.757107,"longitude":-73.97192,"name":"51 St","parent_station":"630"},{"id":"631S","latitude":40.751776,"longitude":-73.976848,"name":"Grand Central-42 St","parent_station":"631"},{"id":"632S","latitude":40.746081,"longitude":-73.982076,"name":"33 St","parent_station":"632"},{"id":"633S","latitude":40.74307,"longitude":-73.984264,"name":"28 St","parent_station":"633"},{"id":"634S","latitude":40.739864,"longitude":-73.986599,"name":"23 St","parent_station":"634"},{"id":"635S","latitude":40.734673,"longitude":-73.989951,"name":"14 St-Union Sq","parent_station":"635"},{"id":"636S","latitude":40.730054,"longitude":-73.99107,"name":"Astor Pl","parent_station":"636"},{"id":"637S","latitude":40.725915,"longitude":-73.994659,"name":"Bleecker St","parent_station":"637"},{"id":"638S","latitude":40.722301,"longitude":-73.997141,"name":"Spring St","parent_station":"638"},{"id":"639S","latitude":40.718803,"longitude":-74.000193,"name":"Canal St","parent_station":"639"},{"id":"640S","latitude":40.713065,"longitude":-74.004131,"name":"Brooklyn Bridge-City Hall","parent_station":"640"}],"7":[{"id":"726N","latitude":40.755882,"longitude":-74.00191,"name":"34 St-Hudson Yards","parent_station":"726"},{"id":"725N","latitude":40.755477,"longitude":-73.987691,"name":"Times Sq-42 St","parent_station":"725"},{"id":"724N","latitude":40.753821,"longitude":-73.981963,"name":"5 Av","parent_station":"724"},{"id":"723N","latitude":40.751431,"longitude":-73.976041,"name":"Grand Central-42 St","parent_station":"723"},{"id":"721N","latitude":40.742626,"longitude":-73.953581,"name":"Vernon Blvd-Jackson Av","parent_station":"721"},{"id":"720N","latitude":40.742216,"longitude":-73.948916,"name":"Hunters Point Av","parent_station":"720"},{"id":"719N","latitude":40.747023,"longitude":-73.945264,"name":"Court Sq","parent_station":"719"},{"id":"718N","latitude":40.750582,"longitude":-73.940202,"name":"Queensboro Plaza","parent_station":"718"},{"id":"716N","latitude":40.744587,"longitude":-73.930997,"name":"33 St-Rawson St","parent_station":"716"},{"id":"715N","latitude":40.743781,"longitude":-73.924016,"name":"40 St-Lowery St","parent_station":"715"},{"id":"714N","latitude":40.743132,"longitude":-73.918435,"name":"46 St-Bliss St","parent_station":"714"},{"id":"713N","latitude":40.744149,"longitude":-73.912549,"name":"52 St","parent_station":"713"},{"id":"712N","latitude":40.74563,"longitude":-73.902984,"name":"61 St-Woodside","parent_station":"712"},{"id":"711N","latitude":40.746325,"longitude":-73.896403,"name":"69 St","parent_station":"711"},{"id":"710N","latitude":40.746848,"longitude":-73.891394,"name":"74 St-Broadway","parent_station":"710"},{"id":"709N","latitude":40.747659,"longitude":-73.883697,"name":"82 St-Jackson Hts","parent_station":"709"},{"id":"708N","latitude":40.748408,"longitude":-73.876613,"name":"90 St-Elmhurst Av","parent_station":"708"},{"id":"707N","latitude":40.749145,"longitude":-73.869527,"name":"Junction Blvd","parent_station":"707"},{"id":"706N","latitude":40.749865,"longitude":-73.8627,"name":"103 St-Corona Plaza","parent_station":"706"},{"id":"705N","latitude":40.75173,"longitude":-73.855334,"name":"111 St","parent_station":"705"},{"id":"702N","latitude":40.754622,"longitude":-73.845625,"name":"Mets-Willets Point","parent_station":"702"},{"id":"701N","latitude":40.7596,"longitude":-73.83003,"name":"Flushing-Main St","parent_station":"701"}],"7X":[{"id":"726N","latitude":40.755882,"longitude":-74.00191,"name":"34 St-Hudson Yards","parent_station":"726"},{"id":"725N","latitude":40.755477,"longitude":-73.987691,"name":"Times Sq-42 St","parent_station":"725"},{"id":"724N","latitude":40.753821,"longitude":-73.981963,"name":"5 Av","parent_station":"724"},{"id":"723N","latitude":40.751431,"longitude":-73.976041,"name":"Grand Central-42 St","parent_station":"723"},{"id":"721N","latitude":40.742626,"longitude":-73.953581,"name":"Vernon Blvd-Jackson Av","parent_station":"721"},{"id":"720N","latitude":40.742216,"longitude":-73.948916,"name":"Hunters Point Av","parent_station":"720"},{"id":"719N","latitude":40.747023,"longitude":-73.945264,"name":"Court Sq","parent_station":"719"},{"id":"718N","latitude":40.750582,"longitude":-73.940202,"name":"Queensboro Plaza","parent_station":"718"},{"id":"716N","latitude":40.744587,"longitude":-73.930997,"name":"33 St-Rawson St","parent_station":"716"},{"id":"715N","latitude":40.743781,"longitude":-73.924016,"name":"40 St-Lowery St","parent_station":"715"},{"id":"714N","latitude":40.743132,"longitude":-73.918435,"name":"46 St-Bliss St","parent_station":"714"},{"id":"713N","latitude":40.744149,"longitude":-73.912549,"name":"52 St","parent_station":"713"},{"id":"712N","latitude":40.74563,"longitude":-73.902984,"name":"61 St-Woodside","parent_station":"712"},{"id":"711N","latitude":40.746325,"longitude":-73.896403,"name":"69 St","parent_station":"711"},{"id":"710N","latitude":40.746848,"longitude":-73.891394,"name":"74 St-Broadway","parent_station":"710"},{"id":"707N","latitude":40.749145,"longitude":-73.869527,"name":"Junction Blvd","parent_station":"707"},{"id":"702N","latitude":40.754622,"longitude":-73.845625,"name":"Mets-Willets Point","parent_station":"702"},{"id":"701N","latitude":40.7596,"longitude":-73.83003,"name":"Flushing-Main St","parent_station":"701"}]}